stop_id,stop_code,stop_name,stop_desc,stop_lat,stop_lon,zone_id,stop_url,location_type,parent_station,wheelchair_boarding
50701,,Tocornal - Vega,,-33.040891,-71.598970,,,0,,
51501,,Philippi / Poniente,,-33.034909,-71.588708,,,0,,
51502,,Philippi / Oriente,,-33.034958,-71.588809,,,0,,
50702,,Chaigncaux - Vega,,-33.041414,-71.597156,,,0,,
50703,,Chañarcillo - Sta Justina,,-33.046686,-71.595523,,,0,,
50601,,Diego Portales - Nelson,,-33.041251,-71.603585,,,0,,
50602,,Nelson - Blanco Viel,,-33.041699,-71.601707,,,0,,
50603,,Gral Belgrano - Yussef,,-33.041838,-71.599342,,,0,,
50604,,Vega - Lautaro,,-33.042850,-71.599122,,,0,,
50605,,Gral Bartolome - Hernan Cortes,,-33.043537,-71.597864,,,0,,
50606,,Sta Ines - Mitre,,-33.045164,-71.596921,,,0,,
50607,,Sta Ines - Sta Jutina,,-33.046344,-71.596678,,,0,,
50608,,Sta Justina - Limanche,,-33.046743,-71.598719,,,0,,
50609,,Ovalle - Guillermo Weelwright,,-33.048157,-71.598403,,,0,,
50610,,Basterrica - Fuentecilla,,-33.049890,-71.598053,,,0,,
50650,,Carlos Antunez,,-33.050304,-71.597215,,,0,,
50651,,Desterrica,,-33.049885,-71.597972,,,0,,
50652,,Ovalle - Guillermo Weelwright,,-33.048130,-71.598315,,,0,,
50653,,Ovalle - Sta Justina,,-33.046959,-71.598840,,,0,,
50654,,Sta Justina - Morse,,-33.046648,-71.597396,,,0,,
50655,,Sta Justina - Sta Ines,,-33.046564,-71.596599,,,0,,
50656,,Gral Bartolome Mitre - Sta Leonor,,-33.045853,-71.595285,,,0,,
50657,,Gral Bartolome Mitre - Copernico,,-33.044440,-71.595856,,,0,,
50658,,Gral Bartolome Mitre - Hernan Cortes,,-33.043478,-71.597787,,,0,,
50659,,Tocornal - Blanco Viel,,-33.040317,-71.601275,,,0,,
50901,,11 Septiembre / Oriente,,-33.062570,-71.569300,,,0,,
50902,,11 Septiembre / Poniente,,-33.062570,-71.569365,,,0,,
41000,,Plaza Conquista,,-33.040254,-71.590531,,,0,,
41001,,Martin de Salvatierra - San Patricio,,-32.964386,-71.519532,,,0,,
40201,,Tercera del Sur - Septima,,-33.117559,-71.568833,,,0,,
40202,,Cuarta del Sur - Novena,,-33.119231,-71.566535,,,0,,
40203,,Quinta del Sur - Undecima,,-33.120889,-71.564215,,,0,,
40204,,Quinta del Sur - Novena,,-33.120694,-71.565361,,,0,,
40205,,Cuarta del Sur - Septima,,-33.119021,-71.567635,,,0,,
40206,,Tercera del Sur - Septima,,-33.117504,-71.568520,,,0,,
50301,,Javiera Carrera - Blanca,,-33.040829,-71.588996,,,0,,
89031,,Argentina - Almte. Simpson,,-33.0512979977566,-71.6020546294749,,,0,,
89032,,María Mercedes - Santa Fe,,-33.0585651402638,-71.3809577096254,,,0,,
89033,,Frodden 1722,,-33.0544826859918,-71.4664638508111,,,0,,
89034,,Las Américas - Contreras / Oriente,,-33.0382251769914,-71.3946852553636,,,0,,
89035,,Contreras - Las Américas / Sur,,-33.0378856506245,-71.3944840896875,,,0,,
89036,,Cruz Del Sur - Marte,,-33.041525934665,-71.4811248052865,,,0,,
89037,,Freire - Jose Fuentes,,-33.0465510332777,-71.4094956591725,,,0,,
89038,,Errrazuriz - Edwards,,-33.0434653182669,-71.6184834111481,,,0,,
89039,,Colon - Juana Ross,,-33.0512586214911,-71.6056973207743,,,0,,
89040,,Mateo De Toro Y Zambrano - Jose Uribe,,-33.0362374676151,-71.4112798310816,,,0,,
89041,,Salvador Donoso - Granada,,-33.037258310385,-71.4423588383943,,,0,,
89042,,Los Lirios - Psje 612,,-33.0582369323261,-71.4149506855756,,,0,,
89043,,La Palma - Primera / Norte,,-33.0617819628793,-71.3653392065316,,,0,,
89044,,Freire - Las Palmas,,-33.0425174868931,-71.4312032796443,,,0,,
89045,,Los Carreras - Pedro Aguirre Cerda,,-33.0486464259371,-71.4281723834575,,,0,,
89046,,Las Palmas - Villarica Colegio Las Americas,,-33.0673094079484,-71.423778925091,,,0,,
89047,,Los Carreras 1422 - 1448,,-33.0485025379066,-71.4335528947412,,,0,,
89048,,Julio Velasco - Ortiz Vega,,-33.053174282286,-71.467877374962,,,0,,
89049,,Tps - Aduana,,-33.0339143151806,-71.629617260769,,,0,,
89050,,Avenida Valparaíso - Nazareth / Sur,,-33.046240767037,-71.394411418587,,,0,,
89051,,Sin Nombre,,-33.0604039812812,-71.4166818000376,,,0,,
89052,,Freire - Araus,,-33.0456854327032,-71.4138800650835,,,0,,
89053,,Ovalle - Los Lirios,,-33.0567824618753,-71.424127612263,,,0,,
89054,,Ojos De Agua - Lago Villarrica,,-33.0568761303795,-71.3993718812708,,,0,,
89055,,Avenida Valparaíso - Esmeralda,,-33.0445185446984,-71.3832748867571,,,0,,
89056,,Colon - Morris,,-33.050540,-71.608645,,,0,,
89057,,Fabres 3051 - 3099 / Oeste,,-33.0390436325232,-71.3986944034696,,,0,,
89058,,Nereidas - Las Pléyades,,-33.0605388580833,-71.4262250997126,,,0,,
89059,,Los Carrera 180,,-33.0472187764796,-71.44950424321,,,0,,
89060,,Los Carrera 312,,-33.0462610018251,-71.4569607842714,,,0,,
89061,,Hospital Siquiatrico Del Salvador,,-33.0203537442798,-71.6417703498155,,,0,,
89062,,Aduana,,-33.0340504287399,-71.6302556265147,,,0,,
89063,,Castellón / Pasaje Siete / Norte,,-33.0629036644352,-71.3582823146135,,,0,,
89064,,Troncos Viejos - Andromeda,,-33.0584302604375,-71.3973862398416,,,0,,
89065,,La Nina,,-33.0507432671708,-71.3937607035314,,,0,,
89066,,Mena 1190 / Este,,-33.0510857419251,-71.4459395874292,,,0,,
89067,,Claudio Vicuña,,-33.0455707680929,-71.4437965024263,,,0,,
89068,,Errazuriz - Bellavista / Poniente,,-33.0427403457891,-71.6223189700395,,,0,,
89069,,Entrada A Valparaiso,,-33.029808645248,-71.5873724687845,,,0,,
89070,,Freire - El Belloto / Oeste,,-33.0465420400687,-71.4072661567479,,,0,,
89071,,Los Carrera 864,,-33.0483069397382,-71.4413610566407,,,0,,
89072,,Enrique Costa - Gral. Velasquez,,-33.0450514029885,-71.4430669415742,,,0,,
89073,,Lourdes - Maturana / Norte,,-33.0588573791786,-71.3726723659784,,,0,,
89074,,Universidad Playa Ancha - Campus 1 / Poniente,,-33.0248265400891,-71.6407108772546,,,0,,
89075,,Serena - Freire,,-33.0464071418237,-71.4043972827494,,,0,,
89076,,Ojos De Agua - El Castor,,-33.0604174689707,-71.3994944561273,,,0,,
89077,,Mena 1190 / Oeste,,-33.0510048071789,-71.4460254181176,,,0,,
89078,,Frodden 1480,,-33.0542938454204,-71.4673248399048,,,0,,
89079,,Wenceslao - Juan Alvarado,,-33.0586573080263,-71.4521408546716,,,0,,
89080,,Los Carrera 523,,-33.0479494661012,-71.4452288020402,,,0,,
89081,,Las Acacias - Los Aromos Norte,,-33.0531450565516,-71.3516411650926,,,0,,
89082,,Sargento Aldea - Barros Araña,,-33.0412628679148,-71.3593203295022,,,0,,
89083,,Peñuelas - Cacique,,-33.0519805155509,-71.4196794200689,,,0,,
89084,,II De Línea - Alcalde Alejandro Peralta,,-33.0540600422471,-71.3946825731546,,,0,,
89085,,Errazuriz - Bellavista / Oriente,,-33.0428924927041,-71.621672557667,,,0,,
89086,,Camino Troncal - Punta Lobo Sur,,-33.0346274800911,-71.515242503956,,,0,,
89087,,Colegio Hyatt,,-33.0446624392379,-71.3852114416659,,,0,,
89088,,Freire - Gómez Carreño,,-33.0463846587628,-71.4051885344089,,,0,,
89090,,Uno Norte Santo Tomas,,-33.0378069522732,-71.5223289001733,,,0,,
89091,,Barros Araña - Victoria,,-33.0571219153976,-71.4484686590731,,,0,,
89092,,Argentina - Chacabuco,,-33.0461509313203,-71.6042274702339,,,0,,
89093,,Uno Norte - Lusitania,,-33.0313916759662,-71.5319285262376,,,0,,
89094,,Uno Norte - Los Castaños,,-33.0236963260919,-71.5430677402765,,,0,,
89095,,Troncal Pasarela 4 / Norte,,-33.0348208600355,-71.4893028605728,,,0,,
89096,,La Polar,,-33.043538256892,-71.4211396314204,,,0,,
89097,,Colon - Francia - Colegio Nuestra Señora De Los Urdes,,-33.049737919439,-71.6126898396761,,,0,,
89098,,Manuel Montt - Colón,,-33.042737830317,-71.3580567575991,,,0,,
89099,,Ojos De Agua - Stgo Hurtado,,-33.0513592710239,-71.3988890862674,,,0,,
89100,,Estero - Sta Ana,,-33.0528565457597,-71.3968988871784,,,0,,
89101,,Santa Sara - El Abanderado / Poniente,,-33.0660911070595,-71.3760412205011,,,0,,
89102,,El Rocío - San Juan,,-33.051802910454,-71.3905331958085,,,0,,
89103,,Hevia - Galileo,,-33.0477313839872,-71.4698327053338,,,0,,
89104,,Parque Alejo Barrios / Norte,,-33.0235836485041,-71.6376638878137,,,0,,
89105,,Huanhuali - Porvenir,,-33.0478460457846,-71.3833714462817,,,0,,
89106,,Colon - San Ignacio - Urgencias Hospital Carlos Van Buren,,-33.0500073358442,-71.6114935744554,,,0,,
89107,,Camino Troncal - El Rincón Sur,,-33.051778180602,-71.3385197985917,,,0,,
89108,,Santiago - Lincoyán,,-33.0381284908082,-71.402873788029,,,0,,
89109,,Gregoria - Diego Almagro,,-33.0496536355674,-71.403379101539,,,0,,
89110,,La Marina - Pte Casino,,-33.0208161429567,-71.5614811051637,,,0,,
89111,,Universidad Federico Santa Maria,,-33.0357855048139,-71.4851588476449,,,0,,
89112,,Berlín - San Luis,,-33.0416316108307,-71.3852385152131,,,0,,
89113,,Errazuriz - Rodriguez / Poniente,,-33.0437359773272,-71.6160613764077,,,0,,
89114,,Avenida Valparaíso - Ferrari,,-33.0444870677365,-71.38019034639,,,0,,
89115,,Uno Norte - Estero Marga Marga,,-33.0256820695279,-71.5396050084382,,,0,,
89116,,Las Barrancas 2972,,-33.0723757403196,-71.4244762994349,,,0,,
89117,,Vicuña Mackenna 852,,-33.0471355898921,-71.4445475209504,,,0,,
89118,,Marga Marga - Quintero / Sur,,-33.0625057879642,-71.4242842281237,,,0,,
89119,,Baquedano - Riveros,,-33.0432122413279,-71.3615063298494,,,0,,
89120,,Las Palmas - Cuatro Pinos / Norte,,-33.0665946135307,-71.4251522161067,,,0,,
89121,,Volcan Pucon,,-33.0706540292098,-71.4252487756312,,,0,,
89122,,Colon - Rancagua,,-33.0512442947639,-71.6050187218934,,,0,,
89123,,Arturo Alessandri - Barros Araña,,-33.0616515838152,-71.4488658774644,,,0,,
89124,,Industrial 1198,,-33.0410470176867,-71.4132807590067,,,0,,
89125,,O´Higgins - Ortiz Vega,,-33.0505574165452,-71.4675099123269,,,0,,
89126,,Los Carrera 549,,-33.0480843619838,-71.4449900854379,,,0,,
89127,,Barros Araña 1652,,-33.0566093625554,-71.4485842455178,,,0,,
89128,,Colegio Nuevo Milenio,,-33.047859535398,-71.3905812241137,,,0,,
89129,,Los Lirios - Psje Seis,,-33.058095307975,-71.4151733089238,,,0,,
89130,,Blanco - San Martin,,-33.0475425289368,-71.4322976209223,,,0,,
89131,,Uno Norte Bella Tierras,,-33.0286572276631,-71.535418080166,,,0,,
89132,,Parque,,-33.0225003463663,-71.6341796983033,,,0,,
89133,,Av. Esapaña,,-33.0264244790252,-71.5851623285562,,,0,,
89134,,Windmill College,,-33.0384567736962,-71.3827652670443,,,0,,
89135,,Los Carrera 15 / Sur,,-33.0472210247646,-71.4522076584399,,,0,,
89136,,La Palma - Primera / Sur,,-33.0616920463041,-71.3662806618959,,,0,,
89137,,Marga Marga - Porvenir,,-33.0542174098359,-71.4275248814374,,,0,,
89138,,Peñueñas - San Antonio,,-33.0520771865291,-71.4186735916883,,,0,,
89139,,Los Lirios 2603 - 2791,,-33.0577895784403,-71.417827103287,,,0,,
89140,,Camino Troncal - El Rincón Norte,,-33.0516477867218,-71.3382783997804,,,0,,
89141,,Uno Norte - Los Ligustros,,-33.0333322732443,-71.5286801196635,,,0,,
89142,,Uno Norte - Cinco 1 / 2 Ote,,-33.0232829589741,-71.5448031295091,,,0,,
89143,,Frutillar / Oriente,,-33.0319088729289,-71.4045957662165,,,0,,
89144,,Freire 640 - 731,,-33.0465285502535,-71.4053360559047,,,0,,
89145,,Uno Norte - Puente Quinta,,-33.0223943938058,-71.553257452324,,,0,,
89146,,Osman Perez Freire - Los Cristales / Norte,,-33.0330736793196,-71.40415051952,,,0,,
89147,,Industrial De Valparaiso,,-33.0297413819283,-71.5867019165307,,,0,,
89148,,Berlín - Aranda,,-33.0414629785912,-71.3802335131913,,,0,,
89149,,Errazuriz - Molina,,-33.0436256859163,-71.619341718033,,,0,,
89150,,Correo Chilexpress,,-33.0440486374553,-71.3686570990831,,,0,,
89151,,Bencinera Copec,,-33.0461688210859,-71.3918525911868,,,0,,
89152,,Ramon Angel Jara - Gregoria,,-33.0498604718335,-71.4013878442347,,,0,,
89153,,Maturana / O´Higgins,,-33.0624990442797,-71.3711086381227,,,0,,
89154,,Avenida Valparaíso - Nazareth / Norte,,-33.0461058683305,-71.3940144516528,,,0,,
89155,,Fabres 3050 - 3098 / Este,,-33.0391223297699,-71.3987163640559,,,0,,
89156,,Victoria - Primera,,-33.0462137873122,-71.366669582203,,,0,,
89157,,Rafael Sotomayor - Darwin,,-33.0525537953814,-71.4605761505663,,,0,,
89158,,Hipódromo - Pasaje Tres / Oriente,,-33.0534845240984,-71.3558895327151,,,0,,
89159,,Galvarino - Colipi,,-33.0251579091288,-71.6432321537285,,,0,,
89160,,La Palma - Dos Sur,,-33.0591810888439,-71.3714090455323,,,0,,
89161,,Alcalde Barrios - Frontera,,-33.0271126073173,-71.6402951348573,,,0,,
89162,,Santa Margarita - Ribadavia,,-33.057427647251,-71.37658839114,,,0,,
89163,,Errazuriz - San Martin - Plaza Echaurren,,-33.0358001997974,-71.6291988361627,,,0,,
89164,,Las Américas - Fabres / Norte,,-33.0391425661933,-71.3968873489648,,,0,,
89165,,Tierras Rojas 821 - 833,,-33.0591878327826,-71.4117411710322,,,0,,
89166,,Freire - Lo Gamboa,,-33.0421667349998,-71.4271263219416,,,0,,
89167,,Estacion Recreo / Oriente,,-33.0275762878491,-71.5755224693567,,,0,,
89168,,Banco Bci,,-33.0443544147023,-71.3763494230806,,,0,,
89169,,Las Américas - Lago Riñihue / Poniente,,-33.0405568558297,-71.3947332836688,,,0,,
89170,,Mateo De Toro Y Zambrano - Los Raullies,,-33.0361857505961,-71.4095165301114,,,0,,
89171,,O'Higgins - Vergara,,-33.0497390679971,-71.4696664083749,,,0,,
89172,,San Enrrique - Yungay,,-33.0598307525665,-71.3782835472375,,,0,,
89173,,Tierras Rojas 396,,-33.0573714466223,-71.4039509464054,,,0,,
89174,,Inglaterra - Egipto,,-33.0301256549393,-71.4825276006013,,,0,,
89175,,Sotomayor - Errazuriz,,-33.0381050616745,-71.6281983722001,,,0,,
89176,,Fin 125,,-33.0344843187877,-71.4044798724899,,,0,,
89177,,Alcalde Alejandro Peralta - Las Añañucas,,-33.0574209031775,-71.3950071204454,,,0,,
89178,,Uno Norte Easy,,-33.0359743850725,-71.5250057447702,,,0,,
89179,,Ramon Angel Jara - Rio Cachapoal,,-33.0613076519092,-71.4023931697011,,,0,,
89180,,Santa Rosa 85,,-33.0522525429162,-71.4514488447457,,,0,,
89181,,Aníbal Pinto - Andres Bello,,-33.0467353938596,-71.4454782474786,,,0,,
89182,,Volcan Villarica - Volcan Licancabur / Sur,,-33.0711080607366,-71.4254472590983,,,0,,
89184,,El Belloto 1126 - 1196,,-33.0334694401486,-71.4077017642558,,,0,,
89185,,Estacion Recreo / Poniente,,-33.0271464054827,-71.5756565798075,,,0,,
89186,,Pdte. Gabriel Gonzalez Videla - Peyronet,,-33.0588933469779,-71.432592663914,,,0,,
89187,,El Rocío - Calle 3,,-33.0603118153476,-71.3900074828416,,,0,,
89188,,Madrid - Caupolican,,-33.0391807905361,-71.3774652220309,,,0,,
89189,,Blanco - Las Rosas,,-33.0477516184329,-71.4293686486781,,,0,,
89190,,Plaza El Castillo,,-33.0511779175177,-71.3938135374337,,,0,,
89191,,Taller Deulofeu,,-33.0443926367835,-71.3836611248553,,,0,,
89192,,San Martin - Esmeralda / Norte,,-33.0496109193214,-71.4327911473811,,,0,,
89193,,Tierras Rojas - Pje 615,,-33.0591541130839,-71.4122035726359,,,0,,
89194,,Troncos Viejos - Psje 808,,-33.0620000101928,-71.4119342900813,,,0,,
89195,,Las Pléyades,,-33.0605568416414,-71.4259890653193,,,0,,
89196,,Julio Velasco - San Francisco / Oeste,,-33.0512296257348,-71.4667615760118,,,0,,
89197,,Esrtella Polar - Los Carrera / Norte,,-33.0386883697923,-71.4783782232553,,,0,,
89198,,Ist,,-33.0424095633824,-71.430795583874,,,0,,
89199,,1830 Frodden,,-33.0549255605048,-71.4646694529801,,,0,,
89200,,Los Carrera 15 / Norte,,-33.0470928724248,-71.4522183872759,,,0,,
89201,,Las Barrancas - Valle De Paraiso,,-33.0689952208448,-71.4225933887064,,,0,,
89202,,La Palma / Aviador Figueroa,,-33.0610558839103,-71.3676164019853,,,0,,
89203,,Manuel Montt - Caupolicán / Oriente,,-33.0438979968038,-71.3559378124774,,,0,,
89204,,Castellón / Gabriel Dazarola / Sur,,-33.0630655119766,-71.3605219591409,,,0,,
89205,,Los Carrera 1729 / Sur,,-33.0408603967508,-71.4726731646806,,,0,,
89206,,Troncos Viejos - Alfa Centauro,,-33.0583538284442,-71.3970536459237,,,0,,
89207,,Primera / Castellón,,-33.0628452194166,-71.3657361734658,,,0,,
89208,,Hevia 150,,-33.0434730538757,-71.4670539367944,,,0,,
89209,,Troncos Viejos - Serena,,-33.0595677404952,-71.4057721663266,,,0,,
89210,,Vicepresidente Bernando Leighton / Poniente,,-33.0498582236158,-71.3554445374757,,,0,,
89211,,San Enrique - Independencia,,-33.0351873813235,-71.4359937049448,,,0,,
89212,,Sargento Aldea - Quinta,,-33.041712554191,-71.3645962346345,,,0,,
89213,,Los Carrera 495 / Norte,,-33.0454313716989,-71.4589214790612,,,0,,
89214,,Buenos Aires - Peyronet,,-33.0526819397743,-71.4316619373859,,,0,,
89215,,Berlín - Las Américas,,-33.0436596692765,-71.3946420885623,,,0,,
89216,,Los Carrera 635,,-33.0482170094001,-71.4440218079835,,,0,,
89217,,Errazuriz - Francia / Oriente,,-33.0442869639302,-71.6117403376848,,,0,,
89218,,Berlín - Pudeto,,-33.0414719723187,-71.381606804207,,,0,,
89219,,La Place - Carlos Lineo,,-33.047095120713,-71.459975335747,,,0,,
89220,,Aviador Acevedo - Marinero Fuentealba,,-33.0421397540271,-71.4093636441976,,,0,,
89221,,Volcan Maipo - Villarica,,-33.0702404538988,-71.4251146651804,,,0,,
89222,,Sotomayor - Errazuriz - Puerto,,-33.0379218517415,-71.6283271182328,,,0,,
89223,,Errazuriz - Gomez Carreño,,-33.0398643289243,-71.6258916724473,,,0,,
89224,,Plaza El Retiro,,-33.0385242289327,-71.4414602983743,,,0,,
89225,,Mateo De Toro Y Zambrano - Central,,-33.0364420868274,-71.4120705798268,,,0,,
89226,,Freire 1133,,-33.0441790425876,-71.4363909233361,,,0,,
89227,,Rotary Club,,-33.0442442450812,-71.3702500797808,,,0,,
89228,,Estación Portales / Norte,,-33.0329185226004,-71.5916747320443,,,0,,
89229,,Nueva Hipódromo - Hipódromo / Sur,,-33.0622989814045,-71.3568392861634,,,0,,
89230,,Pje Dieciseis,,-33.0592410378746,-71.3870927284006,,,0,,
89231,,Ricardo Cumming - Rio Loco,,-33.0593699189323,-71.441414700821,,,0,,
89232,,Freire - Almirante Williams Rebolledo Santa Isabel,,-33.0461688210859,-71.4038581587374,,,0,,
89233,,Portal El Belloto Jumbo,,-33.043587721217,-71.4218745566905,,,0,,
89234,,Ojos De Agua - René Quevedo,,-33.0500493219131,-71.3986629713327,,,0,,
89235,,La Palma - Cuatro Sur,,-33.0599543904482,-71.3697487581521,,,0,,
89236,,Maturana - García,,-33.0580998039896,-71.3724148739129,,,0,,
89238,,Garita Paul Harris,,-33.064825584772,-71.3619301188737,,,0,,
89239,,Los Carrera 243,,-33.0465892544057,-71.4565182197839,,,0,,
89240,,Pdte. Gabriel González Videla - Los Tilos,,-33.0592979837083,-71.4314124919474,,,0,,
89241,,El Rincón - Los Franciscanos,,-33.053956629107,-71.3384017813951,,,0,,
89242,,Pasarela Federico Santa Maria,,-33.033919237008,-71.5953493583948,,,0,,
89243,,Troncos Viejos - Alcalde Alejandro Peralta / Norte,,-33.0583605724463,-71.3950339425355,,,0,,
89244,,Variante Soberanía / Camino Troncal,,-33.0374269506733,-71.5088344551623,,,0,,
89245,,Corporacion Municipal De Valparaiso,,-33.0433493450492,-71.6208786237985,,,0,,
89246,,Supermercado Unimarc,,-33.0444331072043,-71.3769770599902,,,0,,
89247,,Estación Portales,,-33.032835571128,-71.5912268031389,,,0,,
89248,,Serena - Ramon Angel Jara,,-33.0642074278386,-71.402950482443,,,0,,
89249,,Buenos Aires - Bellochio,,-33.0527696174093,-71.4298085309565,,,0,,
89250,,Orompello - Lincoyán,,-33.0351648953988,-71.4028952457011,,,0,,
89251,,Las Palmas 2305 / Norte,,-33.0650436245453,-71.4273140765727,,,0,,
89252,,Las Américas - Las Dilas,,-33.0415551642554,-71.394776199013,,,0,,
89253,,Caleta Membrillo / Oriente,,-33.0223485775129,-71.6334420908241,,,0,,
89254,,Mateo De Toro Y Zambrano - El Belloto,,-33.0361340335468,-71.4078455138952,,,0,,
89255,,Alcalde Barros - Tucapel,,-33.0271563595742,-71.6395467985421,,,0,,
89256,,"Universidad De Playa Ancha, Ciencias De La Educacion / Poniente",,-33.0234101756479,-71.6415155399591,,,0,,
89257,,Argentina - Pedro Montt,,-33.0467795573702,-71.6044420469551,,,0,,
89258,,Troncos Viejos - Alde A. Peralta / Sur,,-33.0584977003765,-71.3954014051706,,,0,,
89259,,Juan Alvarado - Villa Alemana,,-33.0595407648537,-71.4519799221307,,,0,,
89260,,Cuarta Compaía De Bomberos,,-33.0561530081716,-71.3911340106279,,,0,,
89261,,Maturana - La Palma,,-33.0585651402638,-71.3725087512285,,,0,,
89262,,Caleta Abarca,,-33.0239513513533,-71.5693372953683,,,0,,
89263,,El Rocio - Porvenir,,-33.0576546974256,-71.3900986779481,,,0,,
89264,,Madrid / Sur,,-33.0386703817678,-71.3886127341539,,,0,,
89265,,Baquedano - Barros Araña,,-33.0422724103967,-71.3591272104532,,,0,,
89266,,Colegio Carlos Cousiño / Poniente,,-33.0505374381042,-71.608197139576,,,0,,
89267,,Gregoria - Serena,,-33.0494288129879,-71.4050667453557,,,0,,
89268,,Unión - Contreras,,-33.0377934611202,-71.3925448525697,,,0,,
89269,,Huanhuali - Los Cipreses,,-33.0615436837541,-71.3871670234948,,,0,,
89270,,Reloj De Flores,,-33.0231783247287,-71.5675938595086,,,0,,
89271,,Aviador Acevedo 792,,-33.0425219837032,-71.4072366524488,,,0,,
89272,,Colon - Francia - Liceo Eduardo De La Barra,,-33.0497866362284,-71.6131189931185,,,0,,
89273,,Plaza Belén,,-33.0429221988807,-71.3763279654086,,,0,,
89274,,Los Cipreses,,-33.0638702494996,-71.3878697622567,,,0,,
89275,,Gimasio Pacific Fitness,,-33.055462851974,-71.4270394016057,,,0,,
89276,,San Martin / Samuel Valencia / Norte,,-33.0516118159623,-71.4332605339587,,,0,,
89277,,Inhen - Peñuelas,,-33.0525133286923,-71.4156614709646,,,0,,
89278,,El Retiro - Latorre,,-33.0402285807675,-71.44070472571,,,0,,
89279,,Marga Marga - Elena,,-33.0568791275812,-71.4268409181386,,,0,,
89280,,Los Lirios - San Antonio,,-33.057202844521,-71.4204545784742,,,0,,
89281,,Los Carrera 739,,-33.0441273302307,-71.4614239800721,,,0,,
89282,,Serena - Los Carrera,,-33.0511344522502,-71.4051869136892,,,0,,
89283,,Santiago - Belgrano,,-33.0379531062982,-71.4019640162587,,,0,,
89284,,Errazuriz - San Martin - Plaza Echaurren,,-33.0360343596928,-71.6289332974702,,,0,,
89285,,Errazuriz - Francia / Oriente,,-33.044495703191,-71.6117135155947,,,0,,
89286,,Los Eucaliptus - Vilgo,,-33.0606467593763,-71.4307687617838,,,0,,
89287,,San Enrrique - Los Cisnes,,-33.0584572364193,-71.3782701361923,,,0,,
89288,,Madrid - Los Naranjos,,-33.0380880174908,-71.3997002318501,,,0,,
89289,,Independencia - Latorre,,-33.0356595844165,-71.4351836778224,,,0,,
89290,,Volcan Villarica - Volcan Maipo,,-33.0702809124389,-71.4249644614756,,,0,,
89291,,Avenida Valparaíso - Paseo La Torre,,-33.0442464934422,-71.3732088077813,,,0,,
89292,,Lynch - Santiago,,-33.0433688788186,-71.3699051364711,,,0,,
89293,,Colegio Mary Graham / Oriente,,-33.0504832259189,-71.3744774926454,,,0,,
89294,,Los Carreras - Jotabeche / Este,,-33.0487970584671,-71.4258163142949,,,0,,
89295,,Playa Torperderas / Sur,,-33.0276669995621,-71.6298103798181,,,0,,
89296,,Los Lunes - Troncal,,-33.0354729520679,-71.4843354094774,,,0,,
89297,,Uno Norte - San Martin,,-33.0206622546476,-71.559552596882,,,0,,
89298,,Lago Lanalhue 2401,,-33.0665946135307,-71.4155928231776,,,0,,
89299,,Troncal Pasarela 2 / Sur,,-33.0370919183175,-71.5019387472421,,,0,,
89300,,Isabel Riquelme - Sargento Aldea,,-33.0407704588091,-71.3558415044099,,,0,,
89301,,Los Carrera 627,,-33.0481113411355,-71.4442041981965,,,0,,
89302,,Troncos Viejos - La Grieta,,-33.0604826594409,-71.4088218379766,,,0,,
89303,,Estadio Marista Colegio Champagnat,,-33.0371796114733,-71.3693703152239,,,0,,
89304,,Ascensor Artilleria,,-33.0336320357563,-71.6300142277032,,,0,,
89305,,Madrid / Este,,-33.0380970115629,-71.4001723006368,,,0,,
89306,,Veinte De Enero - Madrid,,-33.0559319491408,-71.401029486442,,,0,,
89307,,Errazuriz - Rodriguez / Oriente,,-33.0435175103748,-71.6154712904244,,,0,,
89308,,Los Zapadores - Los Pioneros,,-33.0650930767899,-71.3745794165879,,,0,,
89309,,Canal Moraleda - Los Andes,,-33.0460564054197,-71.3468963373452,,,0,,
89310,,Manuel Montt - God Bless You,,-33.0505911395365,-71.3444796670228,,,0,,
89311,,Hipódromo - Los Maitenes / Oriente,,-33.0584752204026,-71.3549239374697,,,0,,
89312,,Traslaviña - Los Espinos,,-33.0492864252403,-71.384995240951,,,0,,
89313,,La Aguada - Tierras Rojas / Sur,,-33.0586707959834,-71.4132877159864,,,0,,
89314,,Ojos De Agua - Río Limarí,,-33.0630228022376,-71.3996929395944,,,0,,
89316,,El Belloto - Leucotón,,-33.034247464778,-71.4078734256327,,,0,,
89317,,Huanhuali - Araya / Oriente,,-33.052407665583,-71.3827440608293,,,0,,
89318,,Errazuriz - Gomez Carreño / Oriente,,-33.0400488922312,-71.6256046760828,,,0,,
89319,,El Belloto - Frutillar / Sur,,-33.0320437933765,-71.4078358747066,,,0,,
89320,,El Ocaso - Guaranies,,-33.049152280428,-71.4150692318799,,,0,,
89321,,Falebella - Buenos Aires,,-33.0477179115974,-71.6178879607469,,,0,,
89322,,Santiago 575 - 593,,-33.0380655323063,-71.4052394963801,,,0,,
89323,,Ricardo Cumming 883,,-33.05698703336,-71.4412591326982,,,0,,
89324,,San Enrique - Card Jose Mª Caro,,-33.0323308733964,-71.4317069762001,,,0,,
89325,,Andromeda,,-33.0640410866861,-71.3986938376911,,,0,,
89326,,Los Carrera 277,,-33.0475357841061,-71.4473960269242,,,0,,
89327,,Errazuriz - Urriola - Bencinera Shell,,-33.03936821082,-71.6266319621354,,,0,,
89328,,Madrid - Calle Uno,,-33.038067780825,-71.3917348254472,,,0,,
89329,,Maturana - El Álamo / Oriente,,-33.0659337606964,-71.3712561596185,,,0,,
89330,,Colina De Oro - Los Diamanes / Sur,,-33.0639219502621,-71.437265323475,,,0,,
89331,,Uno Norte Supermecado Jumbo,,-33.0358484649451,-71.5247428882867,,,0,,
89332,,Colegio Carlos Cousiño / Oriente,,-33.0507380618578,-71.6075695026665,,,0,,
89333,,Uno Norte - Los Alerces,,-33.0304089933741,-71.5329904295504,,,0,,
89334,,Los Lirios - Kennedy,,-33.0567667255876,-71.4215859415708,,,0,,
89335,,Aníbal Pinto 168,,-33.0460136874289,-71.4454380143434,,,0,,
89336,,Aviador Acevedo 602 - 698,,-33.0427355819175,-71.4064614940435,,,0,,
89337,,Hipermercado Lider,,-33.0446444524333,-71.418559346348,,,0,,
89338,,Inglaterra - Checoslovaquia,,-33.0307980200584,-71.4835280645639,,,0,,
89339,,Los Lirios - San Pedro,,-33.057578264759,-71.4192770887166,,,0,,
89340,,Uno Norte - Puente Villanelo,,-33.0216430986166,-71.5574202407151,,,0,,
89341,,Las Palmas - Pucará,,-33.0658933001576,-71.4259783364832,,,0,,
89342,,Bruselas 950,,-33.0358597078209,-71.4469132293016,,,0,,
89343,,Uno Norte - Tres 1 / 2 Ote,,-33.0230380663602,-71.5471715200692,,,0,,
89344,,Inglaterra - Libano,,-33.0302650755528,-71.4830425847322,,,0,,
89345,,Condominio Los Molinos,,-33.0425399709412,-71.3886661268771,,,0,,
89346,,Municipalidad Villa Alemana,,-33.0441273302307,-71.3708079792559,,,0,,
89347,,Inglaterra 803,,-33.0295949551025,-71.481567369774,,,0,,
89348,,Troncos Viejos - El Alba,,-33.0595362689127,-71.4075397420675,,,0,,
89349,,Freire - San Pedro,,-33.046103620017,-71.4019500184804,,,0,,
89350,,Calle Tres - Calle Diez,,-33.045080631409,-71.4734778273851,,,0,,
89351,,Cuatro Pinos - Volcan Maipo / Norte,,-33.0692604524668,-71.4269492961466,,,0,,
89352,,Manuel Montt - Caupolicán / Poniente,,-33.0437451075209,-71.3563160039485,,,0,,
89353,,Las Palmas 2305 / Sur,,-33.064800858578,-71.4279363490641,,,0,,
89354,,Calle Tres 225,,-33.0433966088986,-71.4730781782418,,,0,,
89355,,Claudio Vicuña 661,,-33.0457011709714,-71.4431822765619,,,0,,
89356,,Los Nardos - Ovalle,,-33.0583268524307,-71.4243529178202,,,0,,
89357,,El Rincón - Las Acacias,,-33.0551278882212,-71.3380743004382,,,0,,
89358,,"Pontificia Universidad Catolica De Valparaiso, Casa Central",,-33.0441766348162,-71.6057804692538,,,0,,
89359,,Lincoyán 1080 - 1160,,-33.0335773746116,-71.4026806689799,,,0,,
89360,,Blanco - Lautaro,,-33.047095120713,-71.434212718159,,,0,,
89361,,Madrid - Aranda / Norte,,-33.0387783098596,-71.3797829020768,,,0,,
89362,,Lago Lanalhue - Autopista,,-33.0658678251769,-71.4157977328796,,,0,,
89363,,San Enrique - Libertad,,-33.0340675753008,-71.4344992116094,,,0,,
89364,,Alcalde Barrios - Manuel Riofrio,,-33.0271491337314,-71.6408181656151,,,0,,
89365,,Manuel Montt - Los Aromos,,-33.0478955076903,-71.3507372606546,,,0,,
89366,,Alcalde Alejandro Peralta - Troncos Viejos,,-33.0585966121936,-71.3950714934617,,,0,,
89368,,Alcalde Alejandro Peralta - Arturo Gatica,,-33.0600308210518,-71.3949132431298,,,0,,
89370,,Maturana - Altamirano / Poniente,,-33.0538397271502,-71.3740239478648,,,0,,
89371,,Castellón / Pasaje Siete / Sur,,-33.0629733488298,-71.3582689035684,,,0,,
89372,,Freire - Psje La Sta María,,-33.0459372446569,-71.4131246879697,,,0,,
89373,,Sgto Aldea - Ferrocarril,,-33.0410852412032,-71.3572864048729,,,0,,
89374,,Toncos Viejos - Ojos De Agua,,-33.0583021244111,-71.3993469346315,,,0,,
89375,,Pergola Cementerio De Playa Ancha,,-33.0243176804688,-71.6433823574334,,,0,,
89376,,Errazuriz - Gomez Carreño / Oriente,,-33.0402373274458,-71.625325726345,,,0,,
89377,,Supermercado Ekono,,-33.0589990023036,-71.3854825962335,,,0,,
89378,,Garita Alcande Miguel Gandulfo,,-33.063216119838,-71.3935855496675,,,0,,
89379,,Freire - San Martin,,-33.0426523910956,-71.4310798980296,,,0,,
89380,,Porvenir Sur - Finlandia,,-33.0598936955098,-71.3841709960252,,,0,,
89381,,Marga Marga / Este,,-33.0687209974797,-71.4158825017512,,,0,,
89382,,Anita Linaza - Manuel Plaza / Norte,,-33.0568993599248,-71.4563814271241,,,0,,
89383,,Los Zapadores,,-33.0654819502903,-71.3750273454934,,,0,,
89384,,Av Altamiranon / Norte,,-33.0199355510869,-71.6358077991754,,,0,,
89385,,Colon - Francisco Vergara Valdes,,-33.0494595641251,-71.6146344412118,,,0,,
89386,,Victoria - San Martín,,-33.0464745909721,-71.3729244936256,,,0,,
89387,,Serena - Los Retoños,,-33.0626159347379,-71.4043436385691,,,0,,
89388,,Pluton - Alfa,,-33.0610334045897,-71.4276305772364,,,0,,
89389,,Los Carreras - Jotabbeche / Oeste,,-33.0487093768765,-71.4258458185941,,,0,,
89390,,Maturana - Altamirano / Oriente,,-33.0543028378377,-71.3738013245165,,,0,,
89391,,Troncos Viejos - Los Algarrobos,,-33.0579918995747,-71.3925207126886,,,0,,
89392,,Colegio Barros Arana,,-33.0391807905361,-71.3977534510195,,,0,,
89393,,Manuel Montt - Vicepresidente Bernardo Leighton,,-33.0464700943638,-71.3535721041262,,,0,,
89394,,Hospital Quilpue / Sur,,-33.0524481323207,-71.4335341192781,,,0,,
89395,,Uno Norte Petrobras Poniente,,-33.0239969265709,-71.5420332179565,,,0,,
89396,,Errazuriz - Francia / Poniente,,-33.0443787224888,-71.6122150886803,,,0,,
89397,,Canchas Fútbol 6,,-33.0436844014084,-71.3623887766153,,,0,,
89398,,Madrid - Principal / Sur,,-33.0382499106491,-71.3847232796252,,,0,,
89399,,Estación Baron,,-33.042692862316,-71.6055551636965,,,0,,
89400,,Troncos Viejos - Beta Centauro,,-33.0583425884396,-71.3976544607431,,,0,,
89401,,Errazuriz - Las Heras - Facea,,-33.0437193735867,-71.6170645225793,,,0,,
89402,,Los Carrera - Caupolican / Sur,,-33.0484350903114,-71.4360288251191,,,0,,
89403,,Troncos Viejos - Los Avellanos,,-33.0577895784403,-71.3913673628122,,,0,,
89404,,La Palma - Paul Harris,,-33.0616448400653,-71.3623270858079,,,0,,
89405,,Camino Troncal,,-33.0371031610346,-71.5172112453729,,,0,,
89406,,Fuente Clara Poniente - Psje F,,-33.0580391077725,-71.413408415392,,,0,,
89407,,Huanhuali - El Sauce,,-33.0544467163903,-71.3824785221368,,,0,,
89408,,Las Barrancas - Valle De Pica,,-33.0691997639459,-71.4227945543826,,,0,,
89409,,Universidad De Valparaiso Sede De Derecho,,-33.0438533058719,-71.6145539749414,,,0,,
89410,,Pasaje Santa Rosa,,-33.0515151444732,-71.4545358158648,,,0,,
89411,,Los Carrera 18,,-33.0470658929611,-71.4499950874597,,,0,,
89412,,Los Carrera 1166 / Norte,,-33.0428232694554,-71.4657021034509,,,0,,
89413,,Alemania - Israel,,-33.0319583437837,-71.4833510387689,,,0,,
89414,,Uno Norte Colegio San Ignacio,,-33.0323158823174,-71.5302682388574,,,0,,
89415,,Colon - Buenos Aires,,-33.048699,-71.617936,,,0,,
89416,,Madrid - Pasaje Uno,,-33.0384387856244,-71.3816977478564,,,0,,
89417,,Venecia - Constitución,,-33.0366669425566,-71.4329413510859,,,0,,
89418,,Estrella Polar - Cruz Del Sur,,-33.0414270036716,-71.4808029402047,,,0,,
89419,,Hospital Naval,,-33.045184054973,-71.3883067108691,,,0,,
89420,,Las Barrancas - Volcan Socampa,,-33.0714736818271,-71.4240696658089,,,0,,
89421,,Los Carrera 981,,-33.0483249257949,-71.440339135006,,,0,,
89422,,San Martin - Covadonga / Sur,,-33.0504517510888,-71.4331156946718,,,0,,
89423,,Vicuña Mackenna 629,,-33.0458180837328,-71.4445043541491,,,0,,
89424,,Puerto - Errazuriz,,-33.0385165280998,-71.6277853120118,,,0,,
89425,,Uno Norte - Quillota,,-33.0230221642189,-71.549116121605,,,0,,
89426,,Lourdes - Anita Westwood,,-33.0609659665933,-71.3770926464349,,,0,,
89427,,Juan Alvarado 1863,,-33.0592327923608,-71.4521435368806,,,0,,
89428,,Escuela Alemania - Argentina Oriente,,-33.0475621141349,-71.6036910284311,,,0,,
89429,,Troncos Viejos - Pasaje Arturus,,-33.058412276445,-71.3982338178903,,,0,,
89430,,Alcalde Barrios - Gnral Vidaurre,,-33.0262895887531,-71.6433662641793,,,0,,
89431,,Beuselas 1017,,-33.0353425340475,-71.4474389422685,,,0,,
89432,,"Pontificia Universidad Catolica De Valparaiso, Gimpert",,-33.0443978278485,-71.6066119540483,,,0,,
89433,,Camino Troncal - Uno Norte,,-33.0381599700423,-71.5202689636499,,,0,,
89434,,Freire - Ojos De Agua,,-33.0461755660213,-71.3986595347523,,,0,,
89435,,Castellón / Gabriel Dazarola / Norte,,-33.0630025713014,-71.3606158364564,,,0,,
89436,,Tierras Rojas - El Alba / Sur,,-33.0578277946902,-71.4090525079519,,,0,,
89437,,Troncal Pasarela / Sur,,-33.0383263600926,-71.5063053835183,,,0,,
89438,,Maturana - Paseo La Torre,,-33.0443948851407,-71.3742146361619,,,0,,
89439,,Vicepresidente Bernando Leighton - Santa Adelina,,-33.0474233701847,-71.3539666403085,,,0,,
89440,,Troncos Viejos - Alde M. Gandulfo,,-33.0582661563702,-71.3936070073396,,,0,,
89441,,Los Carrera 1729 / Norte,,-33.0406917630349,-71.4726892579347,,,0,,
89442,,Unión 1268,,-33.0326689220877,-71.4013502933085,,,0,,
89443,,Alcalde - Acaceas,,-33.0551278882212,-71.4386654365808,,,0,,
89444,,Universidad De Playa Ancha - Campus1 / Oriente,,-33.0249208596138,-71.6400671470911,,,0,,
89445,,Elena - Pluton,,-33.0617347566888,-71.4292291738093,,,0,,
89447,,Troncal Pasarela 4 / Sur,,-33.0350996861848,-71.4891177881509,,,0,,
89448,,Poniente / Francia,,-33.0651088115892,-71.3680831063539,,,0,,
89449,,Las Acacias,,-33.054752457534,-71.4386037457734,,,0,,
89450,,Higueras - Los Olmos,,-33.034148525611,-71.399456653744,,,0,,
89451,,Gregoria - San Jorge / Oeste,,-33.0493523731801,-71.4067254401743,,,0,,
89452,,Troncal Pasarela 3 / Norte,,-33.0346657063929,-71.4954612124711,,,0,,
89453,,Uno Norte - Troncal Sur,,-33.0379508577766,-71.5225220192224,,,0,,
89454,,San Enrique - Luis Uribe,,-33.0374494360207,-71.4390463102609,,,0,,
89455,,Diego Portales 754,,-33.0473109561199,-71.4423264004291,,,0,,
89456,,Troncal Pasarela 3 / Sur,,-33.0348725778556,-71.4953431952745,,,0,,
89457,,España - Escala Bari,,-33.0334870707531,-71.5932840574533,,,0,,
89458,,Muelle Baron,,-33.0434645193293,-71.6060781944543,,,0,,
89459,,Universidad De Valparaiso Faculta De Arquitectura / Norte,,-33.0251851487433,-71.6398632992057,,,0,,
89460,,Iglesia San Felipe Neri,,-33.0421127730461,-71.3733185268939,,,0,,
89461,,El Rocío - San Miguel,,-33.0504764813134,-71.3905439246446,,,0,,
89462,,Serena - Alto Sol,,-33.0556157209142,-71.4061353541911,,,0,,
89463,,La Marina - Pte Ecuador,,-33.0218025334139,-71.5598878043365,,,0,,
89464,,Garita Galvarino,,-33.0265778116219,-71.6440073121339,,,0,,
89465,,Colegio Charles Darwin,,-33.0485542476947,-71.3875130284578,,,0,,
89466,,El Belloto - Frutillar / Norte,,-33.032030301341,-71.4077017642558,,,0,,
89467,,Lima - La Dehesa,,-33.0369997279826,-71.3626650441438,,,0,,
89468,,Parque - Subida Parque Membrillo,,-33.0241861933822,-71.6384578216821,,,0,,
89470,,Exequiel Valencia - El Belloto,,-33.0404174515007,-71.4077512174845,,,0,,
89471,,Valle Del Paraiso - Almirante Grau,,-33.0715800712262,-71.4163760282099,,,0,,
89472,,Fuente Clara - Calle A,,-33.0579963955947,-71.4135505724698,,,0,,
89473,,Copec,,-33.0443746499238,-71.3814402557909,,,0,,
89474,,Huanhuali - Araya / Poniente,,-33.0525088323924,-71.3828137982637,,,0,,
89475,,Santa Sara - El Abanderado / Oriente,,-33.0661585411289,-71.3761619199067,,,0,,
89477,,Maturana - Veteranos Del 79,,-33.0523919285133,-71.3741583097726,,,0,,
89478,,Pasarela Av España - Yolanda,,-33.0361817950642,-71.5988172031939,,,0,,
89479,,Santa Sara - Límite Urbano,,-33.0648885241434,-71.3759339321405,,,0,,
89480,,Marga Marga - Buenos Aires,,-33.0528460542508,-71.4278344251215,,,0,,
89481,,Alde A. Peralta - Jazmin Del Cabo,,-33.0622854940033,-71.3950902689249,,,0,,
89482,,El Rocío - Cuadro Verde,,-33.0483811321981,-71.3905383087695,,,0,,
89483,,Colegio Mary Graham / Poniente,,-33.0504877223222,-71.3746142853051,,,0,,
89484,,Centenario - Baden Powell,,-33.0475762530827,-71.4189509488642,,,0,,
89485,,Mozart / Oriente,,-33.0625035400694,-71.3988721836358,,,0,,
89486,,Freire 912 - 998,,-33.0464071418238,-71.4098711684346,,,0,,
89487,,Los Diamantes / Este,,-33.0639556681343,-71.4335260726511,,,0,,
89488,,Límite Bruselas,,-33.0347848824035,-71.447894917801,,,0,,
89489,,El Belloto 1212 - 1294,,-33.0326194516319,-71.4077285863459,,,0,,
89490,,Tierras Rojas - El Ocaso,,-33.0584774684002,-71.4098609425126,,,0,,
89491,,Ricardo Cumming 1,,-33.0612492058308,-71.4415756333619,,,0,,
89492,,Valle Del Paraiso / Oeste,,-33.0714452113447,-71.416746173054,,,0,,
89493,,Hospital Carlos Van Buren,,-33.0501843877008,-71.6104019153863,,,0,,
89494,,Madrid - Progreso,,-33.0394146332131,-71.3761187531054,,,0,,
89495,,Supermercado Santa Isabel,,-33.0470996172894,-71.3536233175546,,,0,,
89496,,Alfonso Alcalde,,-33.062065199491,-71.3958297466161,,,0,,
89497,,Peru - Gregoria,,-33.0490376203314,-71.4086469600443,,,0,,
89498,,Colegio Juan Xxiii / Oeste,,-33.0459664727834,-71.3986488059163,,,0,,
89499,,Uno Norte - Troncal Sur,,-33.0343981219325,-71.527312444523,,,0,,
89500,,Colegio San Nicolás,,-33.0638050615383,-71.3759312499315,,,0,,
89501,,Los Cerezos - Higueras,,-33.0334874292349,-71.399284992367,,,0,,
89502,,Humboldt - Lebu,,-33.056038357191,-71.4602998830378,,,0,,
89503,,Hipódromo / Oriente,,-33.0565868820993,-71.355342362076,,,0,,
89504,,Osman Perez Freire - Los Cristales / Sur,,-33.0330556901487,-71.4042631722987,,,0,,
89505,,Urano - Las Pléyades,,-33.0607456687786,-71.4259461499751,,,0,,
89506,,Freire 262 - 292,,-33.0459260030672,-71.4019473362714,,,0,,
89507,,Agua Cristalina - Ismael Huerta,,-33.0528055876959,-71.4522669184953,,,0,,
89508,,Serena 916,,-33.0571533878433,-71.4063622523099,,,0,,
89509,,Isabel Riquelme / Poniente,,-33.0398688258698,-71.3557637203485,,,0,,
89510,,Camino Troncal - Punta Lobos Poniente,,-33.0351289179074,-71.5144083369523,,,0,,
89511,,Troncal Pasarela / Norte,,-33.0379913311571,-71.5066808927804,,,0,,
89512,,Huanhuali - Porvenir Sur,,-33.0596037080043,-71.3857642281801,,,0,,
89513,,Leverrier - Humboldt,,-33.0505214453402,-71.456724749878,,,0,,
89514,,Thompson - Covadonga / Norte,,-33.0502089448788,-71.439781235531,,,0,,
89515,,Elena - Eucaliptus / Norte,,-33.0607681481727,-71.4299909211695,,,0,,
89516,,Lord Cochrane - San Pedro,,-33.0607231893787,-71.419455204159,,,0,,
89517,,Uno Norte Supermercado Unimarc,,-33.0227581882541,-71.5497062075883,,,0,,
89518,,Maturana - Santa María,,-33.060795123438,-71.3719937670976,,,0,,
89519,,Baquedano / Sur,,-33.0427468239144,-71.3598835933954,,,0,,
89520,,La Aguada - Psje 904,,-33.0614222960272,-71.4138643909246,,,0,,
89521,,God Bless You / Norte,,-33.0491342945404,-71.3440773356706,,,0,,
89522,,Lourdes - Santa Margarita,,-33.0597543217892,-71.3743219245225,,,0,,
89523,,Errazuris - Duoc Cousiño / Oriente,,-33.0409601382674,-71.6244218219072,,,0,,
89524,,Mateo De Toro Y Zambrano 711 - 771,,-33.0362352190497,-71.4073895383626,,,0,,
89525,,Portal El Belloto Easy,,-33.0440418923571,-71.4204851724207,,,0,,
89526,,Cassano - El Rocío,,-33.0510340336236,-71.3904741872102,,,0,,
89527,,Humboldt - Quidora,,-33.0573916788528,-71.4609814155846,,,0,,
89528,,Federico Santa Maria,,-33.0341629694005,-71.5955931879581,,,0,,
89529,,Colina De Oro - Alcalde,,-33.0596756429785,-71.4366776682436,,,0,,
89530,,Los Carreras - San Martin,,-33.0485385099363,-71.4324424602091,,,0,,
89531,,Av Argentina - Rancagua / Poniente,,-33.0490309183234,-71.603500591591,,,0,,
89532,,Jumbo De Valparaiso,,-33.0440654126536,-71.6049865353853,,,0,,
89533,,Estrella Polar - La Obra Del Litoral,,-33.0397001902557,-71.4801887143403,,,0,,
89534,,Camino Troncal - Uno Norte,,-33.0383128690192,-71.5206308104098,,,0,,
89535,,Edwards - Plaza Victoria,,-33.0471837477212,-71.6194355953485,,,0,,
89536,,Las Américas - Las Camelias,,-33.0419958553663,-71.394781563431,,,0,,
89537,,La Aguada - Tierras Rojas / Norte,,-33.0587224998,-71.4131616521627,,,0,,
89538,,Madrid - Principal / Sur,,-33.0382813898398,-71.3850934244692,,,0,,
89539,,Galvarino 67,,-33.0257449548548,-71.6436076629906,,,0,,
89540,,Ricardo Cumming - Blocks,,-33.0579379473177,-71.4412457216531,,,0,,
89541,,Serena - 11 De Linea,,-33.0543253188771,-71.405770573765,,,0,,
89542,,Trole Bus Valparaiso,,-33.0462084561411,-71.6046619880944,,,0,,
89543,,Camino Troncal - Isla Picton,,-33.0364330925863,-71.5161973703653,,,0,,
89544,,Gómez Carreño 859,,-33.0364151041013,-71.4056869223714,,,0,,
89545,,Contreras - Las Américas / Norte,,-33.0379576033413,-71.3944331277162,,,0,,
89546,,Ramon Angel Jara - Yungay,,-33.0536224093635,-71.4018373866566,,,0,,
89547,,Multitienda Tricot,,-33.0443701532083,-71.3734043575823,,,0,,
89548,,Industrial - Baden Powell,,-33.0398058686116,-71.419301815331,,,0,,
89549,,Tierras Rojas - Serena,,-33.0568071903218,-71.4066825248301,,,0,,
89551,,Uno Norte - Libertad,,-33.0224463061661,-71.5514174569398,,,0,,
89552,,Frutillar - Camino Vecinal,,-33.0320010685905,-71.406383709982,,,0,,
89553,,Huanhuali - Gandarilla,,-33.0554201385462,-71.3828915823251,,,0,,
89554,,Riquelme - VIña Del Mar,,-33.0582122042812,-71.449869023636,,,0,,
89555,,Manuel Montt - Bucarest,,-33.0477336322592,-71.3507238496095,,,0,,
89556,,Atacama 2064,,-33.0577648502697,-71.4673302043229,,,0,,
89557,,Peñuelas - Fernandois,,-33.0521895945098,-71.4168845582753,,,0,,
89558,,Serena - Nva,,-33.0519108224543,-71.4053789712489,,,0,,
89559,,Hipódromo - Las Acacias,,-33.0512318739174,-71.3560668099672,,,0,,
89560,,Troncos Viejos - Las Lomas,,-33.0618471523389,-71.4097793865949,,,0,,
89561,,Maturana - Echaurren,,-33.0562991317539,-71.3734314311296,,,0,,
89562,,Congreso Nacional - Argentina Poniente,,-33.0478024420548,-71.6041067708284,,,0,,
89564,,Los Peumos - Los Algarrobos,,-33.0564250226458,-71.3925099838525,,,0,,
89565,,Los Corchos - Las Barrancas,,-33.0735490019566,-71.4253882505,,,0,,
89566,,Troncos Viejos - Psje Uno,,-33.0595070452902,-71.4062764216214,,,0,,
89567,,Avenida Valparaíso - Carmen,,-33.0449862010923,-71.3879633881152,,,0,,
89568,,Uno Norte - Sporting Club,,-33.0285155557435,-71.5358525980264,,,0,,
89569,,Blanco Encalada - Londres,,-33.0414517364303,-71.3720176555216,,,0,,
89570,,Las Camelias / Este,,-33.0587584676545,-71.4167354442179,,,0,,
89571,,Cassano - Los Olivos,,-33.0508227037279,-71.3879609573632,,,0,,
89572,,Tierras Rojas - Achernar,,-33.0582594123609,-71.4000429678708,,,0,,
89573,,Universidad De Valparaiso Facultad De Arquitectura,,-33.0251165919707,-71.6401020158082,,,0,,
89575,,Colina De Oro - Los Diamanes / Norte,,-33.0638163008455,-71.4372409321368,,,0,,
89576,,Inglaterra - Francia,,-33.0296983968468,-71.4814976323396,,,0,,
89577,,Grunne - Kiwis,,-33.0353762628644,-71.3986970297924,,,0,,
89578,,Los Carrera 432 / Sur,,-33.0478235630909,-71.4462292660028,,,0,,
89579,,Los Diamantes - Las Malaquitas,,-33.0638724973594,-71.4362112153322,,,0,,
89580,,Huanhuali - Villa,,-33.0507620024939,-71.3829586375505,,,0,,
89581,,Julio Velasco - San Francisco / Este,,-33.0512633484686,-71.4666784275323,,,0,,
89582,,Huanhuali - Santa Fe,,-33.0576884176987,-71.3844499457628,,,0,,
89583,,Brasil - Uruguay - Mercado Cardonal,,-33.0447052291505,-71.6081300843506,,,0,,
89584,,Hospital Quilpue / Norte,,-33.0524054174304,-71.4334348775446,,,0,,
89585,,San Martin - Samuel Valencia / Sur,,-33.0516455385497,-71.4333436824381,,,0,,
89586,,Los Diamantes / Oeste,,-33.0638432751766,-71.4335368014872,,,0,,
89587,,Del Trabajador - Industrial,,-33.0409076141334,-71.4121756888926,,,0,,
89588,,La Palma - Ignacio Carrera Pinto,,-33.0618021940961,-71.3643762934953,,,0,,
89589,,Diego Portales - Amalia Paz,,-33.0377343703616,-71.5982217527926,,,0,,
89590,,Quidora - Frodden,,-33.0550312205925,-71.4638326037675,,,0,,
89591,,Las Araucanias,,-33.053904172754,-71.3914915546843,,,0,,
89592,,Freire - Peru,,-33.0466319721173,-71.4080258086324,,,0,,
89593,,Freire 640 - 731,,-33.0466904278996,-71.4068021345884,,,0,,
89594,,Tierras Rojas - Islote Snipes,,-33.0581605001649,-71.4019634295255,,,0,,
89595,,Estación Recreo,,-33.0271451995585,-71.5756565798073,,,0,,
89596,,Tierras Rojas - Bonanza,,-33.057171372093,-71.4050479698926,,,0,,
89597,,Ricardo Cumming - Buenos Aires,,-33.0523649506731,-71.4408029057086,,,0,,
89598,,Madrid - Aranda / Sur,,-33.0388660013368,-71.3797507155687,,,0,,
89599,,Serena 950,,-33.0583965404486,-71.4056407380849,,,0,,
89600,,Venecia - Los Sauces,,-33.0478782709916,-71.3877616618993,,,0,,
89601,,Baquedano / Norte,,-33.0426164166618,-71.3600123394281,,,0,,
89602,,Armando Carrera - Sandy Zañartu,,-33.0632768124855,-71.395479189232,,,0,,
89603,,Del Trabajador - Santiago,,-33.0383218630684,-71.4126928523182,,,0,,
89604,,Intituto Comercial Francisco Araya Bennett,,-33.0500485751497,-71.6025830246507,,,0,,
89605,,Asmar / Oriente,,-33.0260525469862,-71.6315028537064,,,0,,
89606,,Anita Linaza - Manuel Plaza / Sur,,-33.0570589704725,-71.4565772283822,,,0,,
89607,,Las Américas - Contreras / Poniente,,-33.0382813898398,-71.3948488701135,,,0,,
89608,,Uno Norte - Cuatro Puente,,-33.0217715688498,-71.5562803018839,,,0,,
89609,,Playa San Mateo / Norte,,-33.027531152293,-71.6298827994614,,,0,,
89610,,Los Lunes 187,,-33.0375865965155,-71.4840162266046,,,0,,
89611,,Centenario 1603 - 1641,,-33.0475537703202,-71.4197234250605,,,0,,
89612,,Liceo 1 De Valparaiso,,-33.0495662943805,-71.6027549374849,,,0,,
89613,,Ramon Angel Jara - Psje Uno,,-33.0504584956962,-71.4014522172511,,,0,,
89614,,Escuela Básica Mevín Jones,,-33.053664373924,-71.3826555479318,,,0,,
89615,,Garita Isabel Riquelme,,-33.0396574691822,-71.3556374050677,,,0,,
89616,,Cardenal Jose Maria Caro - Dalias,,-33.0335593855436,-71.4308277703822,,,0,,
89617,,Porvenir - Pluma,,-33.0577221379588,-71.3879070617259,,,0,,
89618,,Atacama - Chañaral,,-33.0575670246553,-71.4618155825883,,,0,,
89619,,Antonio Varas,,-33.0312445994816,-71.6291720140727,,,0,,
89620,,Digeder,,-33.0438440359107,-71.3644594419748,,,0,,
89621,,Bruselas - Brasil,,-33.0375955906389,-71.4448801148683,,,0,,
89622,,Maturana - Francisca,,-33.0651290420413,-71.3712427485734,,,0,,
89623,,Los Lirios 2603,,-33.0579694194716,-71.4165358711034,,,0,,
89624,,Volcan Los Corchos - Volcan Villarica,,-33.0730005827557,-71.4265952445567,,,0,,
89625,,Atacama 1838,,-33.0577333780427,-71.4652380812913,,,0,,
89626,,Bencinera Shell,,-33.0441093433168,-71.369005786255,,,0,,
89627,,Chile - Alemania,,-33.0329455063973,-71.4821601379663,,,0,,
89628,,San Martin - Esmeralda / Norte,,-33.0496131675454,-71.4327428676188,,,0,,
89629,,Thompson - Covadonga / Sur,,-33.0505416791448,-71.4396551717073,,,0,,
89630,,Troncal Pasarela 2 / Norte,,-33.0368917977119,-71.5020594466478,,,0,,
89631,,Colon - Las Heras,,-33.048750,-71.617484,,,0,,
89632,,Los Carrera 1166 / Sur,,-33.0429604215834,-71.4655921328813,,,0,,
89633,,Supermercado Mayorista 10,,-33.0445365315287,-71.418189201504,,,0,,
89634,,Supermercado Unimarc,,-33.0456831843789,-71.3907099701464,,,0,,
89635,,Los Carrera 432 / Norte,,-33.0477336322592,-71.4461863506585,,,0,,
89636,,La Mark - VIña Del Mar,,-33.0547974193773,-71.4606005419046,,,0,,
89637,,Manuel Plaza - Santa Rosa,,-33.0516770129531,-71.4542622305452,,,0,,
89638,,San Enrrique - María Mercedes,,-33.0561125431367,-71.3783050049096,,,0,,
89639,,El Retiro - Berlin,,-33.039936280025,-71.4410496689379,,,0,,
89640,,Uno Norte - Mercado,,-33.0233384370776,-71.5456212032587,,,0,,
89641,,Cancha Quidora,,-33.0525425546363,-71.4674104191363,,,0,,
89642,,Los Carrera - Cooperación,,-33.0424860092161,-71.4683170057833,,,0,,
89643,,Thompson - Esperalda,,-33.0494602881836,-71.4396524894983,,,0,,
89644,,Cuatro Pinos - Los Gavilanes,,-33.0679297908498,-71.426112446934,,,0,,
89645,,Parque Alejo Barrios / Sur,,-33.0238135691212,-71.6376933921127,,,0,,
89646,,Madrid - Estados Unidos,,-33.0379261240349,-71.400397606194,,,0,,
89647,,Alcalde - Del Limonar,,-33.0593991426003,-71.4371446240693,,,0,,
89648,,Esrtella Polar - Los Carrera / Sur,,-33.0388390193531,-71.4784828294069,,,0,,
89649,,Los Carreras 1650 - 1692,,-33.0485947162032,-71.429902408272,,,0,,
89650,,Uruguay - Bolivia,,-33.0253447436726,-71.4798373449594,,,0,,
89651,,Uno Norte - Pte. Cancha,,-33.0256303463138,-71.5392294991761,,,0,,
89652,,Los Lunes - Troncal / Norte,,-33.0352503418821,-71.4838552940637,,,0,,
89653,,Las Barrancas 2972,,-33.0706293046534,-71.4234892465174,,,0,,
89654,,Villa Alemana - Pedro Montt,,-33.0594710777416,-71.4510760176927,,,0,,
89655,,Errazuriz - Duoc Cousiño / Poniente,,-33.0409250282912,-71.6247410047799,,,0,,
89656,,Las Américas - Fabres / Sur,,-33.0393112028748,-71.395312640816,,,0,,
89657,,Pedro Montt - Samuel Valencia,,-33.0510632600586,-71.4506870973855,,,0,,
89658,,Alc Alejandro Peralta - Alnilam,,-33.0562556695633,-71.3950052476139,,,0,,
89659,,Recoleta - Marga Marga,,-33.0500358326351,-71.4285908080637,,,0,,
89660,,Las Araucarías - Del Condor,,-33.0524593730779,-71.3924429286271,,,0,,
89661,,El Rincón - Los Salesianos,,-33.0548985834409,-71.3381764758378,,,0,,
89662,,Maturana - San Marco,,-33.0595025493475,-71.3725918997079,,,0,,
89663,,Vicepresidente Bernando Leighton / Oriente,,-33.0494220683017,-71.3550475705415,,,0,,
89664,,Alemania 262,,-33.0317694549161,-71.4834824670106,,,0,,
89665,,Porvenir Sur - San José,,-33.0600622924575,-71.3831729628146,,,0,,
89666,,Los Lirios - Las Margaritas,,-33.0568364148406,-71.4229018427431,,,0,,
89667,,Gabriel Dazarola / Pasaje Dos,,-33.063710651302,-71.3607606757432,,,0,,
89668,,Pontificia Universidad Catolica De Valparaiso - Gimpert,,-33.0444218654226,-71.6066334117204,,,0,,
89669,,Ojos De Agua - Santa Ana,,-33.0523042505022,-71.3988909590989,,,0,,
89670,,Caleta Membrillo / Poniente,,-33.022430337716,-71.6335225570948,,,0,,
89671,,Granada - Berlín,,-33.037833934573,-71.4432600606233,,,0,,
89672,,Las Acacias - Los Arrayanes Sur,,-33.0541971768759,-71.3438895810395,,,0,,
89673,,Baden Powell - Los Carrera,,-33.0499908683603,-71.4192030765116,,,0,,
89674,,Tierras Rojas 492,,-33.0568971118869,-71.4063059259206,,,0,,
89675,,Colon - Rodrigez,,-33.0491843600023,-71.6161606181414,,,0,,
89676,,Freire 906,,-33.0460339222693,-71.4403954613954,,,0,,
89677,,La Place 501,,-33.0474593426552,-71.4601123798639,,,0,,
89678,,Los Andes - Milán,,-33.0440014217565,-71.3504017330706,,,0,,
89679,,San Martin - Covadonga / Norte,,-33.0506338553069,-71.4330432750285,,,0,,
89680,,Cuatro Pinos - Las Palmas,,-33.0666710383683,-71.4250610210001,,,0,,
89681,,El Belloto - Psje Peatonal,,-33.039760899114,-71.407573018223,,,0,,
89682,,Uno Norte Bella Tierras,,-33.0287606705082,-71.5355253685266,,,0,,
89683,,Lourdes - Maturana / Sur,,-33.0591541130839,-71.3730907905847,,,0,,
89684,,Uno Norte - Los Algarrobos,,-33.0346791980248,-71.5266043413431,,,0,,
89685,,Estacion Portales / Sur,,-33.0331681224061,-71.5914303995669,,,0,,
89686,,Los Carrera 495 / Sur,,-33.0454718416424,-71.4591172803193,,,0,,
89687,,Huanhuali / Norte,,-33.0494797730058,-71.3832196185831,,,0,,
89688,,Manuel Montt / Norte,,-33.0497570537612,-71.3462606538087,,,0,,
89689,,Baden Powell - Freire,,-33.0438575261371,-71.4193693734705,,,0,,
89690,,Puente Negro,,-33.0437226237804,-71.364682065323,,,0,,
89691,,Asmar / Poniente,,-33.0258113332114,-71.6317469347268,,,0,,
89692,,Colegio Daniel De La Vega,,-33.0433448960824,-71.4345131255686,,,0,,
89693,,Portal El Belloto Jumbo / Parte Trasera,,-33.0472974664224,-71.4207480289042,,,0,,
89694,,Las Américas - Lago Riñihue / Poniente,,-33.0404354391685,-71.3949103094637,,,0,,
89695,,Calle Cuarta - Armando Carrera,,-33.0639219502621,-71.3952699769288,,,0,,
89696,,Ferretería Toso,,-33.0446264656251,-71.3858176209033,,,0,,
89697,,María Mercedes - Cerda Ote,,-33.0595632445555,-71.3810971844941,,,0,,
89698,,Hipódromo - Colón Poniente,,-33.0510475227487,-71.3561955559999,,,0,,
89699,,Garita Las Acacias,,-33.0538105016368,-71.3466254342347,,,0,,
89700,,Inés De Suárez - Pasaje Dos,,-33.0386771272774,-71.3615489937365,,,0,,
89701,,María Mercedes - Arroyo Seco,,-33.0569195922638,-71.381070362404,,,0,,
89702,,Porvenir Sur - El Rocío,,-33.0574950879581,-71.3898841012269,,,0,,
89703,,Estación Puerto,,-33.0384005609597,-71.6275812126696,,,0,,
89704,,Inacap,,-33.0326818749676,-71.5900922287256,,,0,,
96199,,Avenida Espana,,-33.0383529653508,-71.6018234777691,,,0,,
96200,,Av Espana - Subida San Luis / Oriente,,-33.0355572444756,-71.5980073157698,,,0,,
96201,,Avenida Espana - Arturo Prato / Sur,,-33.0256300162198,-71.5729930637477,,,0,,
96202,,La Marina,,-33.0202922536495,-71.5621958120995,,,0,,
96203,,Los Carrera,,-33.0418928682558,-71.4696223129356,,,0,,
96204,,Berlin,,-33.0437473558946,-71.3946316111833,,,0,,
96205,,Berlin,,-33.0426254102716,-71.388642238453,,,0,,
96206,,Berlin,,-33.0416743309468,-71.3852492440492,,,0,,
96207,,Berlin,,-33.0415034503581,-71.3816228974611,,,0,,
96208,,Berlin,,-33.041498953496,-71.3802496064454,,,0,,
96209,,Berlin,,-33.0421420024418,-71.3733482826501,,,0,,
96210,,Berlin,,-33.0421779770693,-71.3691264856607,,,0,,
96211,,Berlin,,-33.0418317206694,-71.3645962346345,,,0,,
96212,,Berlin,,-33.0413370663085,-71.3593632448465,,,0,,
96213,,Berlin,,-33.0407951917523,-71.3557905424386,,,0,,
96214,,Berlin,,-33.0415776485492,-71.3620588649064,,,0,,
96215,,Los Carrera - David Cortes,,-33.0484040277083,-71.4375304883889,,,0,,
96216,,Berlin,,-33.0421667349998,-71.376226041466,,,0,,
96217,,Berlin,,-33.0421082762151,-71.3708508946002,,,0,,
96218,,Berlin,,-33.0419418933079,-71.3660365808755,,,0,,
96219,,Avenida Espana,,-33.0396428758665,-71.6042989759543,,,0,,
96220,,Las Garzas,,-33.0584392524324,-71.3781840540469,,,0,,
96221,,Lourdes,,-33.0609412393151,-71.3774842489511,,,0,,
96222,,La Marina - Bajada Britania,,-33.0193528558287,-71.5646742518254,,,0,,
96223,,Avenida Espana - Arturo Prat / Norte,,-33.0246638143699,-71.5710556465876,,,0,,
96224,,Avenida Espana - Subida San Luis / Poniente,,-33.0347599347128,-71.5977441443443,,,0,,
96225,,La Palma / 4 Sur,,-33.0600150853447,-71.3698828686029,,,0,,
96226,,Avenida Valparaiso - Caupolican,,-33.0443650611534,-71.3783581382351,,,0,,
96227,,Avenida Valparaiso - Balmaceda,,-33.0444287899487,-71.3824918966119,,,0,,
96229,,La Mark / Galileo,,-33.0517579470815,-71.4587571099401,,,0,,
96230,,Bernardo Ohiggins / Darwin,,-33.0531967636134,-71.4605166390538,,,0,,
96231,,La Place / Cristobal Colon,,-33.0510834937387,-71.4625980332494,,,0,,
96232,,Argentina - Independencia,,-33.051508440038,-71.6025053655411,,,0,,
96233,,Alcalde Barros - Sta Teresa,,-33.0266424595239,-71.6422604250962,,,0,,
96238,,Estadio Valparaiso,,-33.0220006501952,-71.6406221129,,,0,,
96239,,Altamiro,,-33.0203679128719,-71.6368026472628,,,0,,
96336,,Errazuriz - Almirante Martinez,,-33.041842471148,-71.6233403450257,,,0,,
96339,,Marga Marga,,-33.0649103558093,-71.422021317441,,,0,,
96351,,Fuente Clara Norte,,-33.0554898288651,-71.4135887101293,,,0,,
96360,,Los Lunes - Las Brisas,,-33.0400040973966,-71.4838343213049,,,0,,
96361,,Garita,,-33.0582144522856,-71.4140612818301,,,0,,
96365,,Carlos Grume - Abelino Parra,,-33.0372800574557,-71.398573354013,,,0,,
89705,,Escuela Almirante Gomez Carreño,,-32.9929434532048,-71.5231810326077,,,0,,
89706,,Yungay - Doce De Febrero,,-33.0455515564623,-71.6059360373764,,,0,,
89707,,Antofagasta - Pje Veintinueve,,-32.9820948794408,-71.5291543120838,,,0,,
89708,,Jardin Del Mar - Laurencia,,-32.9781033836257,-71.5366484047263,,,0,,
89709,,15 Norte - 3 Oriente,,-33.008771459414,-71.5445266105235,,,0,,
89710,,Pje 50 - Pje Seis,,-33.0287876555782,-71.5155958011746,,,0,,
89711,,Eduardo Frei - Del Membrillo,,-33.0211550489654,-71.5160817839205,,,0,,
89712,,Chorrillos - Caracas,,-33.0265913436352,-71.5669831258856,,,0,,
89713,,Camino Cintura - Subida Prieto / Poniente,,-33.0361309157908,-71.6371945012361,,,0,,
89714,,Antonio Varas,,-33.0312445994816,-71.6291720140727,,,0,,
89715,,Hospital,,-33.0290642520697,-71.5434459317476,,,0,,
89716,,Rio Alvarez 62,,-33.0565171926488,-71.5336880553514,,,0,,
89717,,Eduardo Frei - El Lucumo,,-33.0210021202173,-71.5172029472888,,,0,,
89718,,Estación Portales,,-33.032835571128,-71.5912268031389,,,0,,
89719,,Eduardo Frei - Del Palto,,-33.0227720293488,-71.5221733320504,,,0,,
89720,,Colon - San Ignacio - Urgencias Hospital Carlos Van Buren,,-33.0500073358442,-71.6114935744554,,,0,,
89721,,Inacap,,-33.0326818749676,-71.5900922287256,,,0,,
89722,,Municipalidad De VIña,,-33.0237950049684,-71.5530160535127,,,0,,
89723,,Colon - Rancagua,,-33.0512442947639,-71.6050187218934,,,0,,
89724,,Las Maravillas - Rio Riñihue,,-32.9980485562429,-71.4995024912605,,,0,,
89725,,El Rauli,,-33.0206827681526,-71.5218592621386,,,0,,
89726,,Colon - Francia - Colegio Nuestra Señora De Los Urdes,,-33.049737919439,-71.6126898396761,,,0,,
89727,,Garita,,-33.0218342293177,-71.5046609379351,,,0,,
89728,,Mercado Cardonal,,-33.0457092862383,-71.6077653039247,,,0,,
89729,,Chacabuco - Freire,,-33.0461503857882,-71.6144225466996,,,0,,
89730,,Alejandro Navarrete - Vista Al Campo,,-32.9880300379069,-71.5254287237622,,,0,,
89731,,P De Atacama - Puyehue,,-33.0025227768823,-71.4904167873465,,,0,,
89732,,Valdivia - Marquez,,-33.0357431863583,-71.6303495038301,,,0,,
89733,,Catedral De Valparaiso,,-33.0461917204983,-71.6191190946847,,,0,,
89734,,Eduardo Frei - Olga,,-33.0226123566669,-71.5050900913775,,,0,,
89735,,Yungay - Francia,,-33.0456951845762,-71.6124055255205,,,0,,
89736,,Las Maravillas - Estero Mantenlahue,,-32.9968540426769,-71.5007470362434,,,0,,
89737,,Calle Dos - Tercera,,-32.9914069154529,-71.4936354375095,,,0,,
89738,,Los Peumos - Los Cerezos,,-33.0375513698896,-71.5835913647607,,,0,,
89739,,Garita,,-32.9948429042099,-71.4883365109563,,,0,,
89740,,Camino Internacional - Los Jacintos,,-33.0025355232594,-71.5106122010002,,,0,,
89741,,Diego Portales - Amalia Paz,,-33.0377343703616,-71.5982217527926,,,0,,
89742,,Las Maravillas / Lateral Sodimac,,-32.997216222698,-71.500682663227,,,0,,
89743,,Dieciseis - Octava,,-32.9977628642625,-71.4778157687396,,,0,,
89744,,Rogelio Astudillo 23,,-33.0554381231499,-71.5347958076745,,,0,,
89745,,Eduardo Frei - Del Avellano,,-33.0235029217358,-71.5099878050387,,,0,,
89746,,Colegio Josefina Magasich,,-32.9992790457754,-71.4928237906497,,,0,,
89747,,Alejandro Navarrete - Pje Veintiuno,,-32.9844632906346,-71.5286007155374,,,0,,
89748,,Pje Veintiocho,,-33.0246048711091,-71.5113825537264,,,0,,
89749,,Libertad Plaza O´Higgins,,-33.0097363892885,-71.5487888921052,,,0,,
89750,,"Pontificia Universidad Catolica De Valparaiso, Casa Central",,-33.0441766348162,-71.6057804692538,,,0,,
89751,,Agusto D'Halmar 250,,-33.0214833950871,-71.494897948578,,,0,,
89752,,Escuela Alemania - Argentina Oriente,,-33.0475621141349,-71.6036910284311,,,0,,
89753,,Av España - Cerro Castillo,,-33.0237042391324,-71.5670440066606,,,0,,
89754,,Jorge Montt Iglesia Naval,,-32.9958889718844,-71.5476462710649,,,0,,
89755,,Calle Valparaiso - Viana,,-33.0246470947827,-71.5625325310975,,,0,,
89756,,Colegio Carlos Cousiño / Oriente,,-33.0507380618578,-71.6075695026665,,,0,,
89757,,Cochrane - Almirante Señoriet,,-33.0393835918543,-71.6280884016306,,,0,,
89758,,Libertad - Nueve Norte,,-33.014557320101,-71.5497813094406,,,0,,
89759,,Mar De Chile - Crucero La Torre,,-32.9946516861976,-71.5048132652737,,,0,,
89760,,Arlegui 149,,-33.02276454913,-71.560282157734,,,0,,
89761,,Las Maravillas - Los Pensamientos,,-32.9994545072358,-71.4981533400697,,,0,,
89762,,Los Jilgueros,,-33.0061127868244,-71.5289225799643,,,0,,
89763,,Asmar / Poniente,,-33.0258113332114,-71.6317469347268,,,0,,
89764,,La Paz 2188,,-33.0403544946346,-71.5406162012368,,,0,,
89765,,Plaza Miraflores - Las Encinas,,-33.0318391639501,-71.5305820573121,,,0,,
89766,,Condell - Pudeto,,-33.0452915329311,-71.6229036916048,,,0,,
89767,,Jumbo De Valparaiso,,-33.0440654126536,-71.6049865353853,,,0,,
89768,,Rio Alvarez - Isla Carmen,,-33.0581043000041,-71.5331623423845,,,0,,
89769,,Eduardo Frei - Los Almendros,,-33.0206310420051,-71.5027943719178,,,0,,
89770,,Errazuriz - San Martin - Plaza Echaurren,,-33.0360343596928,-71.6289332974702,,,0,,
89771,,Arlegui 592,,-33.0236455260104,-71.5541774500161,,,0,,
89772,,Gomez Carreño / Esval,,-32.9984954632612,-71.5156145209767,,,0,,
89773,,Con Con - Calle Cuatro,,-33.0080089549132,-71.5391356218606,,,0,,
89774,,Eduardo Frei - El Cipres,,-33.024305771927,-71.5194589365274,,,0,,
89775,,Veintiuno De Mayo - Bayner,,-33.0398358486299,-71.579696797271,,,0,,
89776,,Camino Quebrada Verde 131 / Poniente,,-33.039207808003,-71.638063536957,,,0,,
89777,,Ascensor Artilleria,,-33.0336320357563,-71.6300142277032,,,0,,
89778,,Estación Portales / Norte,,-33.0329185226004,-71.5916747320443,,,0,,
89779,,El Maqui - Corcolén,,-33.0195222959807,-71.5133100011735,,,0,,
89780,,Luis Hurtado 221,,-33.0183145790696,-71.4973414409906,,,0,,
89781,,Alvarez - Alcalde Prieto Nieto,,-33.0271018815551,-71.5491990186274,,,0,,
89782,,Segunda - Calle Siete,,-32.990821989632,-71.4888943544429,,,0,,
89783,,Camino Internacional - Las Camelias,,-33.0031991011709,-71.5100167505989,,,0,,
89784,,Botilleria El Cañito,,-32.9994185151698,-71.5115365017846,,,0,,
89785,,Borgoño - Las Olas / Poniente,,-32.9716950147535,-71.5451295496314,,,0,,
89786,,Bencinera,,-33.0331546305428,-71.5323120821267,,,0,,
89787,,Las Azucenas - Rhin,,-33.0069937711661,-71.4979199881054,,,0,,
89788,,Limache - Pasaje 2047 Limache,,-33.030420236944,-71.5358981955796,,,0,,
89789,,Colon - Morris,,-33.050540,-71.608645,,,0,,
89790,,Rogelio Astudillo - Voltaire,,-33.0507327759589,-71.5379681065679,,,0,,
89791,,Playa Torperderas / Sur,,-33.0276669995621,-71.6298103798181,,,0,,
89792,,Gran Bretaña - Ing Mutilla,,-33.0312431886135,-71.6333455312997,,,0,,
89793,,Arlegui 344,,-33.0230953140452,-71.5577072370797,,,0,,
89794,,Jorge Montt - Guard Riquelme,,-32.9973444475665,-71.5480405557901,,,0,,
89795,,Jorge Montt Escuela Naval,,-32.9913874183405,-71.5469623077661,,,0,,
89796,,Jardin Del Mar - Petalonia,,-32.9766858420844,-71.5382470012992,,,0,,
89797,,Av Argentina - Rancagua / Poniente,,-33.0490309183234,-71.603500591591,,,0,,
89798,,Agusto D'Halmar 188 / Norte,,-33.021182036364,-71.4924839604646,,,0,,
89799,,Iglesia San Expedito,,-32.9737426831705,-71.5445072771399,,,0,,
89800,,Subida Covadonga,,-33.028426354777,-71.5756788478393,,,0,,
89801,,Mall Espacio Urbano VIña Centro,,-33.0272075088232,-71.5475387312472,,,0,,
89802,,Alessandri - Veintidos Nte,,-33.0024507952391,-71.5441942680627,,,0,,
89803,,Las Maravillas - Estero Marga,,-32.9978011065496,-71.5000657551536,,,0,,
89804,,Arlegui 576,,-33.0235342117281,-71.5549311507493,,,0,,
89805,,Estación El Salto,,-33.0413213272605,-71.5212023723871,,,0,,
89806,,Uno Sur - Uno 1 / 2 Sur,,-32.9883765056414,-71.5267751926876,,,0,,
89807,,Mercado - Puerto,,-33.0358039253608,-71.6295716632158,,,0,,
89808,,Atlantico - Cantabrico,,-32.9943584840746,-71.5197478050686,,,0,,
89809,,Cochrane - Carampagne,,-33.0346401158317,-71.6304219234735,,,0,,
89810,,Arlegui 264,,-33.0229649164864,-71.559034679085,,,0,,
89811,,Blanco - Gomez Carreño,,-33.0403676606758,-71.6258433926851,,,0,,
89812,,Tps - Aduana,,-33.0339143151806,-71.629617260769,,,0,,
89813,,Tte Merino - Sta Rosa,,-32.9887574689598,-71.5029974097706,,,0,,
89814,,Argentina - Almte. Simpson,,-33.0512979977566,-71.6020546294749,,,0,,
89815,,Patrullero Lautaro,,-32.9984129808912,-71.504502129028,,,0,,
89816,,Las Maravallias - San Pedro De Atacama,,-33.0036564800163,-71.4907762033545,,,0,,
89818,,Arlegui 839,,-33.024275657427,-71.5497625339777,,,0,,
89819,,Los Alelies - Las Maravillas,,-33.008521040401,-71.5030929038767,,,0,,
89820,,Jj Latorre 135,,-33.0286767168984,-71.5825892800785,,,0,,
89821,,Alessandri - Hospital Naval,,-33.0010831328582,-71.5431777108461,,,0,,
89822,,Camino Internacional - Las Azucenas,,-33.010746292932,-71.5030140616,,,0,,
89823,,Los Sargazos - Nitella,,-32.9795141534741,-71.5310238124221,,,0,,
89824,,Blanco Vergara 1633,,-33.0381060056341,-71.5422147978097,,,0,,
89825,,Palazuelos - San Pablo / Poniente,,-33.0363049245508,-71.6393024660647,,,0,,
89826,,Chacabuco - Plaza Victoria - Catedral De Valparaiso,,-33.0460223642589,-71.6189179290087,,,0,,
89827,,Camino Cintura 290,,-33.0327497592092,-71.6359472740441,,,0,,
89828,,Chacabuco - Las Heras,,-33.0460791176642,-71.6167292464525,,,0,,
89829,,Sta Ines / Feria Libre,,-33.0009834062807,-71.5162367934681,,,0,,
89830,,Luis Hurtado 116,,-33.0187621334484,-71.499039279297,,,0,,
89831,,Estacion Miramar,,-33.02520262128,-71.5609953738749,,,0,,
89832,,Libertad - Ocho Norte,,-33.014561818338,-71.5499797929078,,,0,,
89833,,Uno Sur - Escuela Orlando Pena,,-32.9885114927023,-71.5278990382649,,,0,,
89834,,Alejandro Navarrete 3276 / Norte,,-32.9857172184507,-71.5258283729054,,,0,,
89835,,Pontificia Universidad Catolica De Valparaiso - Gimpert,,-33.0444218654226,-71.6066334117204,,,0,,
89836,,6 Oriente - 14 Norte,,-33.0103909161312,-71.5415279008448,,,0,,
89837,,El Manio,,-33.0277217390289,-71.5175409056246,,,0,,
89838,,Cochrane - Sotomayor,,-33.0383589064672,-71.6290915478021,,,0,,
89839,,Caupolican - Ancud,,-33.0020473966604,-71.5138335341908,,,0,,
89840,,Errazuriz - Gomez Carreño,,-33.0398643289243,-71.6258916724473,,,0,,
89841,,Las Antillas,,-33.0023720652495,-71.4868746510547,,,0,,
89842,,Gomez Carreño / Campo Futbol,,-32.9909907183389,-71.5231139773823,,,0,,
89843,,Condell - Bellavista,,-33.0448403720316,-71.623826371506,,,0,,
89844,,Traslaviña - Vianna,,-33.0257832670327,-71.5587541079731,,,0,,
89845,,Puerto - Errazuriz,,-33.0385165280998,-71.6277853120118,,,0,,
89846,,Rotonda Sta Julia / Oriente,,-32.9994500082284,-71.5092888106301,,,0,,
89847,,"Pontificia Universidad Catolica De Valparaiso, Gimpert",,-33.0443978278485,-71.6066119540483,,,0,,
89848,,Angamos,,-32.9993600280312,-71.4802877046168,,,0,,
89849,,Bohn,,-33.0261100966534,-71.5507107230223,,,0,,
89850,,P De Atacama - Lonquimay,,-33.0015105296298,-71.4902719480597,,,0,,
89851,,Congreso Nacional - Argentina Poniente,,-33.0478024420548,-71.6041067708284,,,0,,
89852,,Pasaje Kimberly,,-33.0033565596036,-71.47920515039,,,0,,
89853,,Eduardo Frei - Pje Dos,,-33.027352937896,-71.5174963702157,,,0,,
89854,,Terminal Bus,,-33.008518791403,-71.5003259302466,,,0,,
89855,,Consejo Nacional De La Cultura Y Las Artes,,-33.0389313483138,-71.6286543477327,,,0,,
89856,,Las Maravillas / Cancha,,-32.9994117666558,-71.4985208027201,,,0,,
89857,,Stgo Watt - Villa Real,,-33.0447913449292,-71.5719076622918,,,0,,
89858,,San Antonio - 14 Norte,,-33.0097566324596,-71.5426222421229,,,0,,
89859,,Camino Internacional - Las Mangolias,,-33.0122442578839,-71.5014261938632,,,0,,
89860,,Escuela Orlando Pena,,-32.9877893095243,-71.5285588616826,,,0,,
89861,,Diego Portales - Condell,,-33.0280485614614,-71.5741982683403,,,0,,
89862,,Gomez Carreño - Dos Nte,,-32.9874810862444,-71.526472103069,,,0,,
89863,,Errazuriz - Las Heras - Facea,,-33.0437193735867,-71.6170645225793,,,0,,
89864,,Viana - Montenegro,,-33.0292756341691,-71.5398276317865,,,0,,
89865,,Carlos Ibañez Del Campo - Livingstone,,-33.0176893485457,-71.5006807912141,,,0,,
89866,,Camino Internacional - Los Alelies,,-33.0096794083944,-71.5041373483564,,,0,,
89867,,Escuela Especial Rapa Nui / Norte,,-32.9941155233129,-71.5214241857029,,,0,,
89868,,Errazuriz - San Martin - Plaza Echaurren,,-33.0358001997974,-71.6291988361627,,,0,,
89869,,Rio Alvarez - Pje Uno,,-33.0603657661497,-71.5332240331916,,,0,,
89870,,O´Higgins 3,,-33.0464611011465,-71.5389693249017,,,0,,
89871,,Parque - Subida Parque Membrillo,,-33.0241861933822,-71.6384578216821,,,0,,
89872,,Alessandri / Bencinera Terpel / Oriente,,-33.0028054538595,-71.517658364246,,,0,,
89873,,Plaza Vergara,,-33.0247056861953,-71.5510660875589,,,0,,
89874,,Camino Cintura 239,,-33.0330816052966,-71.6361913550646,,,0,,
89875,,Lago Villarrica - Nautica,,-32.9991215800651,-71.4929444900554,,,0,,
89876,,Antofagasta - Pje Veinticinco,,-32.9833885890064,-71.5287037009693,,,0,,
89877,,Liceo Tecnico Profesional Maria Luisa Bombal,,-33.0269149228043,-71.6352391708642,,,0,,
89878,,Corporacion Municipal De Valparaiso,,-33.0433493450492,-71.6208786237985,,,0,,
89879,,Plaza Miraflores,,-33.0312500084424,-71.5313679445535,,,0,,
89880,,Variante Carlos Ibañez - Las Amapolas,,-33.0049198819264,-71.5092228167305,,,0,,
89881,,Manuel Villagra - Colomba,,-33.0334819730348,-71.5453932154924,,,0,,
89882,,Entrada A Valparaiso,,-33.029808645248,-71.5873724687845,,,0,,
89883,,Amunategui - Bascuñan,,-33.0282089739087,-71.5802579375304,,,0,,
89884,,Sanatorio Maritimo,,-32.9946081930493,-71.5192059988476,,,0,,
89885,,Mall Plaza Reñaca,,-32.9708646829332,-71.5434290291159,,,0,,
89886,,Lago Rapel - Lago Renco,,-33.0036084925113,-71.4817586133722,,,0,,
89887,,La Marina - Pte Ecuador,,-33.0218025334139,-71.5598878043365,,,0,,
89888,,Subida Alessandri - Sta Ines / Poniente,,-33.0040336276616,-71.5191174859501,,,0,,
89889,,Viana - Valdivia,,-33.0288551182172,-71.54136990197,,,0,,
89890,,Jardin Del Mar - Rodimenia,,-32.9763753299467,-71.5393869401305,,,0,,
89891,,M Rodriguez - Camino Real,,-33.0330272073789,-71.5784790743783,,,0,,
89892,,Quillota - 5 Norte,,-33.0186744219653,-71.5467195678502,,,0,,
89893,,Sodimac,,-32.9971239906598,-71.5012754315831,,,0,,
89894,,Eduardo Frei - Ximena,,-33.0238807345014,-71.5085340477526,,,0,,
89895,,Mercurio De Valparaiso,,-33.0411359848101,-71.6255188453943,,,0,,
89896,,La Marina - Pte Casino,,-33.0208161429567,-71.5614811051637,,,0,,
89897,,Circunvalacion - Pelu,,-33.0178760185549,-71.5199157227471,,,0,,
89898,,Uno Norte - Cuatro Puente,,-33.0217715688498,-71.5562803018839,,,0,,
89899,,Supermercado Unimarc,,-33.0444885335998,-71.6205755341798,,,0,,
89900,,Eduardo Frei - El Maiten,,-33.0219871566223,-71.5125251747668,,,0,,
89901,,Libertad - Diez Norte / Sur,,-33.0135892557851,-71.5495772100985,,,0,,
89902,,Edwards - Plaza Victoria,,-33.0471837477212,-71.6194355953485,,,0,,
89903,,Lusitania - Harrison,,-33.0293588376224,-71.5288654435426,,,0,,
89904,,Libertad - Diez Norte,,-33.0130562072314,-71.5496042836457,,,0,,
89905,,Quince Norte - 1 / 2 Poniente,,-33.0080291984806,-71.5495933033526,,,0,,
89906,,Tte Merino - Dionisio Hernandez,,-32.9892996633969,-71.5016992206074,,,0,,
89907,,Av España - Agua Santa,,-33.0248278186596,-71.563176009804,,,0,,
89908,,Jorge Montt - Petrobras / Oriente,,-33.0043987777469,-71.5501487720758,,,0,,
89909,,Estación Hospital,,-33.0286842127649,-71.5431455243379,,,0,,
89910,,5 Oriente Cruz Verde,,-33.0228237542401,-71.544987950474,,,0,,
89911,,Errazuriz - Rodriguez / Oriente,,-33.0435175103748,-71.6154712904244,,,0,,
89912,,Camino Internacional 110,,-33.0089259087922,-71.5049393288723,,,0,,
89913,,Tamarugo,,-33.0175536571757,-71.5199800918344,,,0,,
89915,,Carlos Ibañez Del Campo - Los Renunculosb,,-33.0152266168458,-71.4996720291674,,,0,,
89916,,Playa Salinas,,-32.9902085627828,-71.5469379164279,,,0,,
89917,,Camino Cintura / Subida Perdices / Oriente,,-33.0370499181392,-71.6366661060601,,,0,,
89918,,Santana - Calle D,,-33.0032530869509,-71.4989124060958,,,0,,
89919,,Lonquimay,,-33.001609505429,-71.4876610971987,,,0,,
89920,,Libertad - Uno Norte,,-33.0220237300263,-71.5515327919275,,,0,,
89921,,Jorge Montt Playa Del Sol,,-33.0008874294348,-71.5491778124124,,,0,,
89922,,Playa San Mateo / Norte,,-33.027531152293,-71.6298827994614,,,0,,
89923,,Universidad Valparaiso - Difider / Oriente,,-33.0249463024904,-71.6384765971452,,,0,,
89924,,Aduana - Carampagne,,-33.0343726362616,-71.6303790081292,,,0,,
89925,,Punta Arenas 5,,-32.9853842394533,-71.5296961183049,,,0,,
89926,,Sotomayor - Errazuriz - Puerto,,-33.0379218517415,-71.6283271182328,,,0,,
89927,,Vera,,-33.0300103488387,-71.5770789609451,,,0,,
89928,,Libertad - Seis Norte,,-33.0178410938655,-71.5503848064691,,,0,,
89929,,Gomez Carreño - Veinticuatro Pte,,-32.9860929432436,-71.5273545498349,,,0,,
89930,,Av España 753,,-33.024200513152,-71.5666014421732,,,0,,
89931,,Carlos Ibañez Del Campo,,-33.0201565094095,-71.5021828282624,,,0,,
89932,,Arlegui - Paseo Ceardi N°Dos,,-33.0233592890005,-71.5562561620027,,,0,,
89933,,Plaza Echaurren / Oriente,,-33.0364162073546,-71.6300598252566,,,0,,
89934,,Fin 208,,-33.0473064595542,-71.5664053894579,,,0,,
89935,,Errazuriz - Urriola - Bencinera Shell,,-33.03936821082,-71.6266319621354,,,0,,
89936,,Palazuelos - San Pablo / Oriente,,-33.0364106069795,-71.6391951777041,,,0,,
89937,,Colegio Alberto Hurtado Segundo / Norte,,-33.0337864972575,-71.6387847997248,,,0,,
89938,,Alemania / Norte,,-32.9865631599933,-71.4996848813098,,,0,,
89939,,Uno Norte - Libertad,,-33.0224463061661,-71.5514174569398,,,0,,
89940,,Reloj Turri / Norte,,-33.0405366807862,-71.6263100970537,,,0,,
89941,,Gran Bretaña - Errazuriz Echaurren,,-33.0277667838642,-71.6337800491602,,,0,,
89942,,Yungay - Freire,,-33.045632843202,-71.6147149074823,,,0,,
89943,,Submarino Simpson,,-32.9933986355577,-71.5064413668006,,,0,,
89944,,Chacabuco - Francia,,-33.0461897917522,-71.6121238935739,,,0,,
89945,,Camino Cintura - Francisco Echaurren,,-33.0343319739966,-71.6350862849504,,,0,,
89946,,VIña Del Mar - Quintanilla,,-32.9765020864983,-71.5393150784075,,,0,,
89948,,Jardin Del Mar - Los Sargazos,,-32.9756417969374,-71.5410794140189,,,0,,
89949,,Eduardo Frei - El Avellano,,-33.0219061951411,-71.5132010914385,,,0,,
89950,,Blanco - Marquez,,-33.0352518603134,-71.6296628583223,,,0,,
89951,,Errazuriz - Bellavista / Oriente,,-33.0428924927041,-71.621672557667,,,0,,
89952,,Agusto D'Halmar 150,,-33.0213619521435,-71.4929453004152,,,0,,
89953,,Iglesia Sau - Sau,,-33.0021651175133,-71.497992407534,,,0,,
89954,,Segunda - Calle Tres,,-32.9903480465135,-71.4925054181367,,,0,,
89955,,Errazuriz - Francia / Oriente,,-33.0442869639302,-71.6117403376848,,,0,,
89956,,Agusto D'Halmar 188 / Sur,,-33.021316973233,-71.4925456512719,,,0,,
89957,,Iglesia Anglicana San Pedro,,-33.0257056607868,-71.5576267708093,,,0,,
89958,,Blanco - Almirante Señoret,,-33.0391388101694,-71.6276672948152,,,0,,
89959,,Libertad - Trece Norte,,-33.010816018592,-71.5490168798715,,,0,,
89960,,De La Costa - Lago Villarrica,,-32.9994230141789,-71.4922015181583,,,0,,
89961,,Punta Arenas - Pje Diecinueve,,-32.985327992877,-71.5294278974034,,,0,,
89962,,Quillota 549,,-33.0175521570822,-71.5462019015104,,,0,,
89963,,Olga,,-33.0294382931047,-71.5766712655022,,,0,,
89964,,Occidental - Oriental,,-33.0296871531848,-71.5585502600879,,,0,,
89965,,Estacion Recreo / Oriente,,-33.0275762878491,-71.5755224693567,,,0,,
89966,,Colon - Rodrigez,,-33.0491843600023,-71.6161606181414,,,0,,
89967,,Calle Tres - Lago Penuelas,,-33.0010853823203,-71.4968417398359,,,0,,
89968,,Subida Alessandri - Sta Ines / Oriente,,-33.0044160228819,-71.5191255325772,,,0,,
89969,,Alessandri,,-33.0002890691487,-71.5426385868341,,,0,,
89970,,Errazuriz - Molina,,-33.0436256859163,-71.619341718033,,,0,,
89971,,VIña Del Mar - Castellani,,-32.9758630590008,-71.5410048700869,,,0,,
89972,,Quillota - 8 Norte,,-33.015896156806,-71.544972108677,,,0,,
89973,,Antigua Casona Del Everton,,-33.0249181587171,-71.5605423320084,,,0,,
89974,,Chonta,,-33.0175731496038,-71.5153270144947,,,0,,
89975,,Sold Barrera - Santos Tornero,,-33.0372628074635,-71.6404077876359,,,0,,
89976,,Hospital Carlos Van Buren,,-33.0501843877008,-71.6104019153863,,,0,,
89977,,Calle Dieciseis,,-32.9993330339543,-71.478176806122,,,0,,
89978,,Entrada Hospital,,-33.0294667771203,-71.5404794085771,,,0,,
89979,,Argentina - Chacabuco,,-33.0461509313203,-71.6042274702339,,,0,,
89980,,Cmno Real Interior,,-33.035235351643,-71.5812417496636,,,0,,
89981,,Los Alelies - Los Jazmines,,-33.0082946137137,-71.502508185913,,,0,,
89982,,Libertad - 18 Nte,,-33.0055054645831,-71.5488439035835,,,0,,
89983,,Plaza Recreo - M Rodriguez,,-33.0315177395574,-71.5817299113769,,,0,,
89984,,Viana - Villanelo,,-33.0253620906706,-71.5578413475305,,,0,,
89985,,Todd Evered,,-33.025162587174,-71.5294520372845,,,0,,
89986,,Colon - Francisco Vergara Valdes,,-33.0494595641251,-71.6146344412118,,,0,,
89987,,Rio San Pedro - Isla Carmen,,-33.0605478498628,-71.5375933516771,,,0,,
89988,,Chacabuco - Doce De Febrero,,-33.0462044388668,-71.605651723221,,,0,,
89989,,Gomez Carreño - Dieciocho Pte,,-32.9895801329816,-71.5245757812954,,,0,,
89990,,Carlos Ibañez Del Campo - Anita Lizama,,-33.0119023822378,-71.5025634504855,,,0,,
89991,,Errazuriz - Bellavista / Poniente,,-33.0427403457891,-71.6223189700395,,,0,,
89992,,Limache 4587,,-33.0496603802359,-71.5081668365747,,,0,,
89993,,Yungay - Las Heras,,-33.0455335698393,-71.6170618403703,,,0,,
89994,,Calle Tres - Los Tulipanes,,-33.0007772054765,-71.4967575296214,,,0,,
89995,,Hospital Clinico Ist,,-33.0264202074109,-71.5531233418733,,,0,,
89997,,Amunategui / Norte,,-33.0285912640406,-71.5788449162937,,,0,,
89998,,Barros Arana - Galvarino,,-33.0344363483338,-71.5827470274962,,,0,,
89999,,Septima - Calle Seis,,-32.9957652440964,-71.4886320568621,,,0,,
90000,,Parque Alejo Barrios / Sur,,-33.0238135691212,-71.6376933921127,,,0,,
90001,,Gran Bretaña - General Del Canto,,-33.0267337398158,-71.6373876202851,,,0,,
90002,,Viana 556,,-33.0257472973081,-71.5551645029336,,,0,,
90003,,Diego Portales - Arturo Pratt,,-33.0267352674557,-71.5719237550547,,,0,,
90004,,Cochrane - Almirante Perez Gacitua,,-33.0372894643919,-71.6296574939042,,,0,,
90005,,Primera - Calle Dos,,-32.9892389197875,-71.4935058820993,,,0,,
90006,,Lusitania,,-33.0264039425207,-71.5292087662965,,,0,,
90007,,Subida Perdices / Oriente,,-33.037037198449,-71.6367733944207,,,0,,
90008,,Manuel Rodriguez - 18 Septiembre,,-33.0324166494731,-71.5798148141403,,,0,,
90009,,Las Rejas - Calle Cuatro,,-33.0262510228787,-71.5242279041559,,,0,,
90010,,Antartida - Cuatro Nte,,-32.9865136631198,-71.5286205524899,,,0,,
90011,,Alejandro Navarrete - Colegio Emanuel,,-32.9846710302124,-71.5306912178494,,,0,,
90012,,Carlos Ibañez Del Campo - Anita Lizama,,-33.0133868326632,-71.5010024048388,,,0,,
90013,,Yungay - Simon Bolivar - Sodimac Valparaiso,,-33.0457027010507,-71.6100103128701,,,0,,
90014,,Cuatro Norte - Cinco Poniente,,-33.0186648694231,-71.5568138100207,,,0,,
90015,,Aduana,,-33.0340504287399,-71.6302556265147,,,0,,
90016,,Universidad De Valparaiso Facultad De Ciencias - Gran Bretaña / Oriente,,-33.02670145741,-71.6384953726083,,,0,,
90017,,Colon - Francia - Liceo Eduardo De La Barra,,-33.0497866362284,-71.6131189931185,,,0,,
90018,,Las Azucenas - Pje Uno,,-33.0067958315385,-71.4978663439251,,,0,,
90019,,Gomez Carreño - Pacifico,,-32.997663133932,-71.5167651886441,,,0,,
90020,,Quillota 33,,-33.0225493870791,-71.5477291680872,,,0,,
90021,,Carlos Ibañez Del Campo - Guacolda,,-33.010264959453,-71.5042907930911,,,0,,
90022,,Cochrane - Almirante Muñoz H,,-33.0378001506263,-71.6293812263758,,,0,,
90023,,Ex. Municipalidad,,-33.0463498897051,-71.6212487686426,,,0,,
90024,,Alessandri - Gomez Carreño,,-32.9989813599966,-71.5147401208378,,,0,,
90026,,Carlos Ibañez Del Campo - Las Orquideas,,-33.0135082865921,-71.5004123188555,,,0,,
90027,,Caleta Membrillo / Oriente,,-33.0223485775129,-71.6334420908241,,,0,,
90028,,Quillota 233,,-33.0208222037034,-71.5472731925547,,,0,,
90029,,Chacabuco - Uruguay,,-33.0463132502378,-71.6077921260148,,,0,,
90030,,San Jose - San Miguel,,-33.028877605752,-71.5599503731937,,,0,,
90031,,El Rosedal,,-33.0012091026481,-71.5078243241805,,,0,,
90033,,Alessandri Central,,-32.9991778178511,-71.5132085794903,,,0,,
90034,,Calle Dos - Segunda,,-32.9903098009964,-71.4929989445955,,,0,,
90035,,Alvarez 1758,,-33.0297658587886,-71.5392455924302,,,0,,
90036,,Quince Norte - Igatri,,-33.0085510310617,-71.546240542084,,,0,,
90037,,Isla De Pascua,,-33.0587404837291,-71.5372044313699,,,0,,
90038,,Gomez Carreño / Bencinera,,-32.9893641561999,-71.5250907654263,,,0,,
90039,,Alvarez - Subida Claude,,-33.030687833484,-71.5364158619195,,,0,,
90040,,Reloj De Flores,,-33.0231783247287,-71.5675938595086,,,0,,
90041,,La Paz - Recabarren,,-33.0412696132259,-71.5411472786218,,,0,,
90042,,Camino Internacional - Los Gladiolos,,-33.0037592020318,-71.5103439800987,,,0,,
90043,,Blanco Vergara - Lautaro,,-33.0365837460037,-71.5439418889581,,,0,,
90044,,Central Electrica,,-33.0243356714233,-71.5463507641107,,,0,,
90045,,Agusto D'Halmar 252,,-33.0215778505942,-71.4945492614061,,,0,,
90046,,Gomez Carreño - Uno Sur,,-32.9910312132795,-71.5232936853863,,,0,,
90047,,Veintiuno Norte - Calle Dos,,-33.0061262828267,-71.5364343859255,,,0,,
90048,,Intituto Comercial Francisco Araya Bennett,,-33.0500485751497,-71.6025830246507,,,0,,
90049,,Errazuriz - Duoc Cousiño / Poniente,,-33.0409250282912,-71.6247410047799,,,0,,
90050,,6 Oriente - Con Con,,-33.0093832576688,-71.5416834689677,,,0,,
90051,,Los Sargazos - Pje 35,,-32.9813073947715,-71.5295673722721,,,0,,
90052,,Camino Internacional - Mar De Chile,,-32.997022760263,-71.5018172378041,,,0,,
90053,,Carlos Ibañez Del Campo 496,,-33.0062132569228,-71.5086675994644,,,0,,
90054,,San Antonio 1001,,-33.0125591421748,-71.5431425906718,,,0,,
90055,,Segunda - Calle Cuatro,,-32.9905527722353,-71.4914486277848,,,0,,
90056,,Valle,,-33.0266003388808,-71.5700837601617,,,0,,
90057,,Madre De Dios,,-33.0348321030424,-71.5788524600066,,,0,,
90058,,Brasil - Uruguay - Mercado Cardonal,,-33.0447052291505,-71.6081300843506,,,0,,
90059,,Los Pensamientos - El Faro,,-32.9976008967445,-71.4952699653531,,,0,,
90060,,Pasaje A - Alessandri,,-33.0015510197429,-71.539739118889,,,0,,
90061,,San Antonio,,-33.0140885641657,-71.5434459317476,,,0,,
90062,,Los Papiros,,-33.0169179249188,-71.4998383261263,,,0,,
90063,,Alemania,,-32.9866899002714,-71.4977920521051,,,0,,
90064,,Colegio Carlos Cousiño / Poniente,,-33.0505374381042,-71.608197139576,,,0,,
90065,,Rio Aysen - Isla Condor,,-33.0552627731071,-71.5322235692292,,,0,,
90066,,Octava - Calle Diez,,-32.9971059941533,-71.485203634511,,,0,,
90067,,Blanco - Aduana,,-33.03467689254,-71.6297755111009,,,0,,
90068,,Antartida - Tres Nte,,-32.9868443880319,-71.52864737458,,,0,,
90069,,Sta Ines - Gomez Carreño,,-32.9994357610038,-71.5149091000058,,,0,,
90070,,Viana - Echevers,,-33.0256230383227,-71.5560898650438,,,0,,
90071,,Alessandri - Veintitres Norte,,-33.0020458974014,-71.5441808570176,,,0,,
90072,,Libertad Museo Francisco Fonk,,-33.019832136666,-71.5507871378213,,,0,,
90073,,Calle Dieciseis - Sexta,,-32.9956685113413,-71.4776484109461,,,0,,
90074,,Eduardo Frei,,-33.0255966137666,-71.5190700162202,,,0,,
90075,,Antartida - Veintisiete Pte,,-32.9863696736553,-71.5284354800679,,,0,,
90076,,Jorge Montt Escuela De Armamentos,,-33.0007479623624,-71.5489471424371,,,0,,
90077,,Eduardo Frei - Membrillo,,-33.0209751327636,-71.5157223679125,,,0,,
90078,,Cochrane - Márquez,,-33.0354185366857,-71.6304085124285,,,0,,
90079,,Alessandri - Pasaje A,,-33.0014542933308,-71.5394279826432,,,0,,
90080,,Errazuriz - Gomez Carreño / Oriente,,-33.0400488922312,-71.6256046760828,,,0,,
90081,,Gomez Carreño / Sanatorio Marítimo,,-32.9954383015889,-71.5195198173024,,,0,,
90083,,Punataqui - Sol Naciente,,-33.0008311927386,-71.4842031705484,,,0,,
90084,,Dionisio Hernandez - Gibraltar,,-33.0056959089254,-71.5038868377451,,,0,,
90085,,Estacion Recreo / Poniente,,-33.0271464054827,-71.5756565798075,,,0,,
90086,,Uno Sur - Veinticinco Pte,,-32.9882977630939,-71.5269468540646,,,0,,
90087,,Colon - Juana Ross,,-33.0512586214911,-71.6056973207743,,,0,,
90088,,Regimiento Maipo,,-33.0267805127361,-71.6351587045938,,,0,,
90089,,Plaza Forestal,,-33.031252257135,-71.5445885527879,,,0,,
90090,,Particular - El Tranque,,-33.035899663984,-71.5452937223018,,,0,,
90091,,Blanco - Urriola,,-33.0397269475113,-71.6268519032747,,,0,,
90092,,Colegio Juanita Fernanadez,,-33.0050795863733,-71.497115325401,,,0,,
90093,,Veintiuno De Mayo - Nuñez De Balboa,,-33.0429656682014,-71.5761026371911,,,0,,
90094,,Jardin Del Mar - Liagora,,-32.9773226135602,-71.5373270036071,,,0,,
90097,,Los Sargazos - Dilomio,,-32.9804164036479,-71.5306027056067,,,0,,
90098,,San Jose / Norte,,-33.0283978703393,-71.5609353037871,,,0,,
90099,,15 Norte Espacio Urbano,,-33.0083800862459,-71.5454707480967,,,0,,
90100,,Colegio Emanuel,,-32.9844707906198,-71.5308789724804,,,0,,
90101,,Duoc Cousiño,,-33.0413577698116,-71.624555932358,,,0,,
90102,,Lonquimay - Pabellon,,-33.0012338466929,-71.4919896236461,,,0,,
90103,,Caleta Membrillo / Poniente,,-33.022430337716,-71.6335225570948,,,0,,
90104,,Eduardo Frei - El Manzano,,-33.0205073489206,-71.5185762383044,,,0,,
90105,,Los Sargazos / Unimarc,,-32.9805604028225,-71.5297604913212,,,0,,
90106,,Brazil - Bellavista,,-33.0438562595759,-71.6225684154779,,,0,,
90107,,Luis Hurtado 266,,-33.0181099177676,-71.4965287316591,,,0,,
90108,,Palazuelos - Quebrada Verde,,-33.0386971025116,-71.6389996279031,,,0,,
90109,,Gomez Carreño - Veinte Pte,,-32.9893956528468,-71.5252838844754,,,0,,
90110,,Alessandri / Bencinera Terpel,,-33.0027334724469,-71.518015098045,,,0,,
90111,,Veintiuno De Mayo - Francisco Bilbao,,-33.0392408573866,-71.5802332387466,,,0,,
90112,,Limache - Lusitania,,-33.0332400789756,-71.5327841509134,,,0,,
90113,,Veintuno Norte - Calle Siete,,-33.0046192164761,-71.5409458614886,,,0,,
90114,,Estacion Portales / Sur,,-33.0331681224061,-71.5914303995669,,,0,,
90115,,Colegio Montemar,,-33.0308587350508,-71.5440360177308,,,0,,
90116,,Juzgado De Garantia Y Tribunal De Juicio General,,-33.0285223020307,-71.5438536275178,,,0,,
90117,,Rogelio Astudillo - Millapen,,-33.0520614494003,-71.5367430914193,,,0,,
90118,,Calle Nueve - Quinta,,-32.9946471869453,-71.4857856741946,,,0,,
90119,,Sta Ines - Cohiueco,,-33.0050188539006,-71.5189887399174,,,0,,
90120,,Libertad - Quince Norte,,-33.0089244093756,-71.5488691069186,,,0,,
90121,,Alemania / Sur,,-32.9867513959437,-71.4996382219397,,,0,,
90122,,Calle Valparaiso - Av España,,-33.0244137176135,-71.5627283323556,,,0,,
90123,,Hotel Montecarlo,,-32.9733151519279,-71.5440217973082,,,0,,
90124,,Gomez Carreño - Diecisiete Pte,,-32.9896836216688,-71.5242995137669,,,0,,
90125,,Lonquimay - De La Costa,,-33.0011056274767,-71.4923651329082,,,0,,
90126,,Escuela Especial Rapa Nui / Sur,,-32.9942302548671,-71.5216763133503,,,0,,
90127,,Errazuriz - Francia / Poniente,,-33.0443787224888,-71.6122150886803,,,0,,
90128,,Alvarez - Alberto Blest Gana,,-33.0273939213052,-71.5480110514909,,,0,,
90130,,Toolson - Aspillaga,,-33.0350599613737,-71.5842833746865,,,0,,
90131,,España - Escala Bari,,-33.0334870707531,-71.5932840574533,,,0,,
90132,,Calle 11 - Eduardo Frei,,-33.0275913095363,-71.519584748894,,,0,,
90133,,Isla De Pascua 457,,-33.0585404123112,-71.536319302395,,,0,,
90134,,Uno Norte - San Martin,,-33.0206622546476,-71.559552596882,,,0,,
90135,,Antofagasta - Pje Veintiseis,,-32.9829768539317,-71.5288351292111,,,0,,
90136,,Eleodoro Yañez - Curiñanco,,-33.0043980278628,-71.5157969111897,,,0,,
90137,,Lago Villarrica - Los Fiordos,,-32.9984152304214,-71.4937116018336,,,0,,
90138,,Patrullero Leucoton,,-32.994356984685,-71.5050171131588,,,0,,
90139,,Estación Recreo,,-33.0271451995585,-71.5756565798073,,,0,,
90140,,Camino Cintura - Subida Prieto / Oriente,,-33.0363980316484,-71.636824356392,,,0,,
90141,,Parque Alejo Barrios / Norte,,-33.0235836485041,-71.6376638878137,,,0,,
90142,,Las Camelias,,-33.0025767630762,-71.5070411155466,,,0,,
90143,,Pasarela Av España - Yolanda,,-33.0361817950642,-71.5988172031939,,,0,,
90144,,Coelgio Lord Chrocane,,-32.9961086816476,-71.5187902564503,,,0,,
90145,,Estacion El Salto,,-33.0412628679148,-71.521022412926,,,0,,
90146,,Viana - Cancha,,-33.0286122524752,-71.5421718824655,,,0,,
90147,,Independencia - Carrera,,-33.0472209323518,-71.6185397375374,,,0,,
90148,,Decima - Calle Trece,,-32.9991305781133,-71.4814598299563,,,0,,
90149,,Condell - Eleuterio Ramirez,,-33.0461145063817,-71.6217557061463,,,0,,
90150,,Veintiuno Pte - Tres Sur,,-32.9899003479507,-71.5262878406793,,,0,,
90151,,Elkonia - Montemania,,-32.9802071533301,-71.5326111746253,,,0,,
90152,,Libertad - Trece 1 / 2 Norte,,-33.0098128634658,-71.5490463841707,,,0,,
90153,,Libertad Copec,,-33.0177883408408,-71.5506610739976,,,0,,
90154,,Camino Cintura - Vargas,,-33.0350242843248,-71.635193573311,,,0,,
90155,,Errazuris - Duoc Cousiño / Oriente,,-33.0409601382674,-71.6244218219072,,,0,,
90156,,Limache 4745,,-33.0489881590672,-71.5095320809633,,,0,,
90157,,Primera,,-32.989171426839,-71.493999408558,,,0,,
90158,,Yungay - Morris,,-33.0457097655887,-71.6092297900469,,,0,,
90159,,Asmar / Oriente,,-33.0260525469862,-71.6315028537064,,,0,,
90161,,Dionisio Hernandez - Kennedy,,-33.0051275730781,-71.5042247996826,,,0,,
90162,,Isla De Pascua - Rio Allipen,,-33.0565464172638,-71.5370998252184,,,0,,
90163,,Jardin Del Mar - Luminaria,,-32.9793094010525,-71.535328757891,,,0,,
90164,,Carlos Ibañez Del Campo - Luis Ayala,,-33.0111331571885,-71.5032715536654,,,0,,
90165,,Las Azucenas - Lourdes,,-33.0088089470827,-71.5003822566359,,,0,,
90166,,Submarino Thomson - Mar De Chile,,-32.9931286761783,-71.5067551852553,,,0,,
90167,,Colon - Buenos Aires,,-33.048699,-71.617936,,,0,,
90168,,Errazuriz - Rodriguez / Poniente,,-33.0437359773272,-71.6160613764077,,,0,,
90169,,Parque Acuatico,,-32.9956437657358,-71.5024008978799,,,0,,
90170,,Limache 4765,,-33.0512543557408,-71.5045565832406,,,0,,
90171,,La Marina - Mercado,,-33.0244215416727,-71.5456399787217,,,0,,
90172,,Camino Internacional,,-33.0196774762838,-71.5021586883813,,,0,,
90173,,Chacabuco - Morris,,-33.0463224694364,-71.608712123707,,,0,,
90174,,Camino Quebrada Verde 131 / Oriente,,-33.0392446489939,-71.6379964817316,,,0,,
90175,,Antofagasta - Pje 38,,-32.9831770969128,-71.5289853329158,,,0,,
90176,,Trole Bus Valparaiso,,-33.0462084561411,-71.6046619880944,,,0,,
90177,,Claudio Arau - Rosario Fernandez,,-33.0044730071764,-71.4910025707285,,,0,,
90179,,Santana - Calle A,,-33.0044025263434,-71.4979468108504,,,0,,
90180,,Jardin Del Mar - Lesonia,,-32.9785691423082,-71.5359912635176,,,0,,
90182,,Universidad De Valparaiso Sede De Derecho,,-33.0438533058719,-71.6145539749414,,,0,,
90183,,Estación Baron,,-33.042692862316,-71.6055551636965,,,0,,
90184,,Errazuriz - Francia / Oriente,,-33.044495703191,-71.6117135155947,,,0,,
90185,,Los Cerezos - Blurton,,-33.0363980316484,-71.5835645423431,,,0,,
90186,,Dieciocho Norte,,-33.0051590640987,-71.5497491229326,,,0,,
90187,,Caleta Abarca,,-33.0239513513533,-71.5693372953683,,,0,,
90188,,Seis Poniente,,-33.0197653452243,-71.5585143305361,,,0,,
90189,,Condell - Molina,,-33.0465541545096,-71.6205996740611,,,0,,
90190,,Av. Esapaña,,-33.0264244790252,-71.5851623285562,,,0,,
90191,,Plaza Washington / Poniente,,-33.0289757253947,-71.6332918871194,,,0,,
90192,,Estacion Chorrillo,,-33.0332962950046,-71.5333018172532,,,0,,
90193,,Jorge Montt Escuela De Operaciones,,-32.9931916667741,-71.5471581090242,,,0,,
90194,,Errazuriz - Gomez Carreño / Oriente,,-33.0402373274458,-71.625325726345,,,0,,
90195,,Quillota 152,,-33.0251657469969,-71.5489712823182,,,0,,
90196,,Rio Orinoco,,-33.0421153887911,-71.5766551719207,,,0,,
90197,,Gomez Carreño - Indico,,-32.9973526955774,-71.5175323004224,,,0,,
90198,,Sold Barrea - Camino Queb Verde,,-33.0377777214391,-71.6403217054904,,,0,,
90199,,Quince Norte - Calera,,-33.0088659285392,-71.5425820089877,,,0,,
90200,,Mar De Chile - Vicente Bustillo,,-32.9952703312096,-71.5031090010598,,,0,,
90201,,Industrial De Valparaiso,,-33.0296784174334,-71.5866858232766,,,0,,
90202,,Septima - Calle Seis,,-32.9958057368462,-71.488975379616,,,0,,
90203,,Parque,,-33.0225003463663,-71.6341796983033,,,0,,
90204,,Plaza Del Recreo,,-33.0309539301009,-71.5816011656716,,,0,,
90205,,Rio Alvarez - Rio Blanco,,-33.0619235812991,-71.5349889267236,,,0,,
90206,,Gomez Carreño - Veintiseis Pte,,-32.9858364606241,-71.5280787462689,,,0,,
90207,,Colegio Alberto Hurtado Segundo / Sur,,-33.0340136083861,-71.6387123800814,,,0,,
90208,,Universidad Valparaiso - Difider / Poniente,,-33.0249739942126,-71.6386375296861,,,0,,
90209,,Septima,,-32.9957112537345,-71.4900187589228,,,0,,
90210,,Alejandro Flores - Las Maravillas,,-33.0039511504691,-71.4906780234378,,,0,,
90211,,5 Oriente Universidad De Valparaiso,,-33.0168729437411,-71.5433196164668,,,0,,
90212,,Liceo 1 De Valparaiso,,-33.0495662943805,-71.6027549374849,,,0,,
90213,,Carlos Ibañez Del Campo - Manuel Plaza,,-33.0184967497191,-71.5014371741563,,,0,,
90214,,Lago Villarrica - Los Oceanos,,-32.9980508057824,-71.4941139331859,,,0,,
90215,,Plaza Anibal Pinto,,-33.0433534446994,-71.6246712673456,,,0,,
90216,,Borinquen - Manati / Norte,,-33.0471710294942,-71.5695634112853,,,0,,
90217,,Pasarela Federico Santa Maria,,-33.033919237008,-71.5953493583948,,,0,,
90218,,Estación Puerto,,-33.0384005609597,-71.6275812126696,,,0,,
90219,,Calle Ocho - Quinta,,-32.993832818494,-71.486745905022,,,0,,
90220,,Blanco - Sotomayor,,-33.0387290883474,-71.62817155011,,,0,,
90221,,Alessandri - Veinte Norte,,-33.0044257702739,-71.5453422535211,,,0,,
90222,,Rio Blanco,,-33.0619745340852,-71.5352364993305,,,0,,
90223,,Mar De Chile - Zenteno,,-32.9939318029059,-71.5058807844616,,,0,,
90224,,Intendencia De Valparaiso,,-33.0429443268033,-71.6235527861863,,,0,,
90225,,Tte Merino - Las Casas,,-32.9877675618112,-71.5049286009162,,,0,,
90226,,Del Avellano,,-33.0266917905388,-71.51313085109,,,0,,
90227,,Diego Portales - Bulnes,,-33.0277067470972,-71.5739193190529,,,0,,
90228,,Plaza Washington / Oriente,,-33.028893039799,-71.6331416834146,,,0,,
90229,,Arlegui - Libertad,,-33.0238268089693,-71.551994131878,,,0,,
90230,,Yungay - Uruguay - Mercado Cardonal,,-33.045697978435,-71.6082776058466,,,0,,
90231,,Eleodoro Yañez - E Uzabeaga,,-33.0040201313391,-71.5154535884358,,,0,,
90232,,Jorge Montt Diecinueve Norte,,-33.0024035572538,-71.5493682492524,,,0,,
90233,,Sol Naciente - Punitaqui,,-33.0007772054765,-71.4843480098352,,,0,,
90235,,San Jose - Agua Sta,,-33.0282704402972,-71.5628310663305,,,0,,
90236,,Eduardo Frei - Pasaje Uno,,-33.0263477220949,-71.5174311865121,,,0,,
90237,,Alondra,,-33.0062942328135,-71.5268626440957,,,0,,
90238,,Eduardo Frei - El Maqui,,-33.0202419704447,-71.5206844545901,,,0,,
90239,,Muelle Baron,,-33.0434645193293,-71.6060781944543,,,0,,
90240,,Argentina - Pedro Montt,,-33.0467795573702,-71.6044420469551,,,0,,
90241,,Lago Peñuelas - Calle Dos,,-33.0016522449443,-71.4974586479349,,,0,,
90242,,Traslaviña,,-33.0285957614757,-71.5586500617064,,,0,,
90243,,Alessandri - Lira,,-32.9997536907161,-71.5112237448193,,,0,,
90244,,Con Con,,-33.0077255444803,-71.5406752098352,,,0,,
90245,,Errrazuriz - Edwards,,-33.0434653182669,-71.6184834111481,,,0,,
90246,,Rotonda Sta Julia / Poniente,,-32.9992925428232,-71.5097608794167,,,0,,
90247,,Cinco Oriente - Cinco Norte,,-33.0188652460976,-71.5439019072801,,,0,,
90248,,Blanco - Clave,,-33.0365826281156,-71.6293785441667,,,0,,
90249,,Borinquen - Manatí / Sur,,-33.0473544232745,-71.5697350726623,,,0,,
90250,,Rogelio Astudillo - O´Higgins,,-33.0462812366086,-71.5391275752336,,,0,,
90251,,Chorrillos - Logar,,-33.0270755863424,-71.5660207727342,,,0,,
90252,,Falebella - Buenos Aires,,-33.0477179115974,-71.6178879607469,,,0,,
90253,,Sta Ines - Indicó,,-33.0009114233815,-71.516746413181,,,0,,
90254,,Karina,,-33.0448054073278,-71.5717360005874,,,0,,
90255,,Simon Bolivar 395,,-33.0290282720874,-71.5435693133622,,,0,,
90256,,Federico Santa Maria,,-33.0341629694005,-71.5955931879581,,,0,,
90257,,Gomez Carreño / Esval Poniente,,-32.9986596786609,-71.5157754535176,,,0,,
90258,,Valenzuela,,-33.0243485004438,-71.5282214619219,,,0,,
90259,,Jorge Montt - Playa Del Deporte,,-32.9931376748377,-71.5472922194749,,,0,,
90260,,Alejandro Navarrete - Alejandro Navarrete Int,,-32.9850107615158,-71.5270514602162,,,0,,
90261,,6 Oriente - 12 Norte,,-33.0122307628177,-71.5420053340495,,,0,,
90262,,Carlos Ibañez Del Campo - Puente Los Tulipanes,,-33.00840857698,-71.5063394419985,,,0,,
90263,,Eduardo Frei - Del Roble,,-33.0211055720465,-71.5219719149172,,,0,,
96381,,Av Espana - Subida San Luis / Oriente,,-33.0355572444756,-71.5980073157698,,,0,,
96382,,Avenida Espana - Arturo Prato / Sur,,-33.0256300162198,-71.5729930637477,,,0,,
96383,,La Marina,,-33.0202922536495,-71.5621958120995,,,0,,
96384,,Cuatro Norte - Tres Poniente,,-33.0188236296054,-71.554835862729,,,0,,
96385,,Subida Alessandri,,-33.0033414985368,-71.5335015028671,,,0,,
96386,,La Marina - Bajada Britania,,-33.0193528558287,-71.5646742518254,,,0,,
96387,,Avenida Espana - Arturo Prat / Norte,,-33.0246638143699,-71.5710556465876,,,0,,
96388,,Errazuriz - Almirante Martinez,,-33.041842471148,-71.6233403450257,,,0,,
96389,,Veintiuno - Pte. Tres Sur,,-32.9898040370144,-71.5261071801751,,,0,,
96390,,Argentina - Orella,,-33.0455408479093,-71.6049231381047,,,0,,
96391,,5 Oriente - Cuatro Norte,,-33.0204753671732,-71.5444168878108,,,0,,
96392,,5 Oriente,,-33.0159443046739,-71.5430967105208,,,0,,
96393,,5 Oriente,,-33.0145485257161,-71.5427249967188,,,0,,
96394,,Dionisio Hernandez - Los Geranios,,-33.0039267890008,-71.5055066352511,,,0,,
96395,,Quillota - Nueve Norte,,-33.0152832267184,-71.5444570341718,,,0,,
96396,,Avenida Espana,,-33.0383529653508,-71.6018234777691,,,0,,
96468,,Avenida Espana - Subida San Luis / Poniente,,-33.0347599347128,-71.5977441443443,,,0,,
96469,,Avenida Espana,,-33.0396428758665,-71.6042989759543,,,0,,
96470,,Calle Dieciocho - Sexta,,-32.9965593485194,-71.4753202535211,,,0,,
96471,,Calle Once - Inca De Oro / Oriente,,-32.9987368497968,-71.483822492331,,,0,,
96472,,Calle Siete - Tercera,,-32.9918564251506,-71.4875854265217,,,0,,
96473,,Calle Once - Inca De Oro / Poniente,,-32.9988227996062,-71.4840614959986,,,0,,
96474,,Argentina - Independencia,,-33.051508440038,-71.6025053655411,,,0,,
96475,,Los Timbales,,-33.0538322341615,-71.5364488587875,,,0,,
96476,,Manuel Guerrero - Vicente Salinas,,-33.00814166266,-71.5085603669286,,,0,,
96477,,Circunvalacion - Pomaire,,-33.0169334154376,-71.5179950404795,,,0,,
96478,,E. Loaiza - Colegual,,-33.008555529605,-71.5110676718177,,,0,,
96479,,"Arturo Godoy - E, Loaiza",,-33.0103639254296,-71.5080850553932,,,0,,
96480,,Luis Ayala - Vicentini,,-33.011650473019,-71.5057032537879,,,0,,
96481,,Lizana - Polguin,,-33.0145743750117,-71.5036325884284,,,0,,
96482,,El Maqui,,-33.0193648664087,-71.5135336853564,,,0,,
96483,,El Maqui,,-33.0207052577725,-71.5102452971041,,,0,,
96484,,Padre Hurtado - El Golf,,-33.0189870974251,-71.5203142125628,,,0,,
96485,,Los Sargazos - Paseo Peatonal,,-32.9750072634683,-71.538753938803,,,0,,
96486,,Anibal Pinto / Edificio Chiavari,,-32.9732543973202,-71.5346850277274,,,0,,
96487,,Mackenna 20,,-32.9725508423827,-71.5353832114488,,,0,,
96488,,Vicuña Mackenna - Barros Araña,,-32.9727278556362,-71.5379439116805,,,0,,
96489,,Edificio El Mar,,-32.9728943691577,-71.5403391243308,,,0,,
96490,,Vicuña Mackenna / Hotel Montecarlo,,-32.9731666405909,-71.5435443641036,,,0,,
96491,,Borinquen,,-33.0474593426552,-71.5646565891802,,,0,,
96492,,Vicuna Mackenna - Portales,,-32.9730053794626,-71.5398230774008,,,0,,
96493,,Colegio Mackay,,-32.9725995950069,-71.5351007701247,,,0,,
96494,,Anibal Pinto,,-32.9736159226583,-71.5347966196714,,,0,,
96495,,Los Sargazos / Mirador / Norte,,-32.9749060077056,-71.5387834431021,,,0,,
96496,,Gomez Careño,,-32.9871542204297,-71.5267282491186,,,0,,
96497,,Pasaje Paillaso,,-33.0061703890662,-71.4873164707187,,,0,,
96498,,Los Alelies,,-33.0063062293269,-71.5003957226872,,,0,,
88375,,Maturana - Francisca,,-33.0651290420413,-71.3712427485734,,,0,,
88376,,Cien Aguilas - Pedro Montt,,-33.0475013104273,-71.3606279352098,,,0,,
88377,,Los Andes - Freire,,-33.0434947878539,-71.3510867578589,,,0,,
88378,,Freire - Peru,,-33.0466319721173,-71.4080258086324,,,0,,
